{
   "type": "FeatureCollection",
   "crs": { "type": "name", "properties": { "name": "urn:ogc:def:crs:OGC:1.3:CRS84" } },
   "features": [
  {
    "type": "Feature",
    "geometry": {
       "type": "Point",
       "coordinates":  [ -85.57502,42.29596 ]
    },
    "properties": {
    "FMID":1000618,
    "MarketName":"100-Mile Market",
    "Website":"http://www.peoplesfoodco-op.org/",
    "street":"507 Harrison Street",
    "city":"Kalamazoo",
    "County":"Kalamazoo",
    "State":"Michigan",
    "zip":"49007"
    }
  },
  {
    "type": "Feature",
    "geometry": {
       "type": "Point",
       "coordinates":  [ -82.8187,34.8042 ]
    },
    "properties": {
    "FMID":1009364,
    "MarketName":"106 S. Main Street Farmers Market",
    "Website":"http://thetownofsixmile.wordpress.com/",
    "street":"106 S. Main Street",
    "city":"Six Mile",
    "County":"",
    "State":"South Carolina",
    "zip":"29682"
    }
  },
  {
    "type": "Feature",
    "geometry": {
       "type": "Point",
       "coordinates":  [ -94.2746191,37.495628 ]
    },
    "properties": {
    "FMID":1010691,
    "MarketName":"10th Steet Community Farmers Market",
    "Website":"",
    "street":"10th Street and Poplar",
    "city":"Lamar ",
    "County":"Barton",
    "State":"Missouri",
    "zip":"64759"
    }
  },
  {
    "type": "Feature",
    "geometry": {
       "type": "Point",
       "coordinates":  [ -73.9493,40.7939 ]
    },
    "properties": {
    "FMID":1002454,
    "MarketName":"112st Madison Avenue",
    "Website":"",
    "street":"112th Madison Avenue",
    "city":"New York",
    "County":"New York",
    "State":"New York",
    "zip":"10029"
    }
  },
  {
    "type": "Feature",
    "geometry": {
       "type": "Point",
       "coordinates":  [ -86.790709,36.11837 ]
    },
    "properties": {
    "FMID":1011100,
    "MarketName":"12 South Farmers Market",
    "Website":"http://www.12southfarmersmarket.com",
    "street":"3000 Granny White Pike",
    "city":"Nashville",
    "County":"Davidson",
    "State":"Tennessee",
    "zip":"37204"
    }
  },
  {
    "type": "Feature",
    "geometry": {
       "type": "Point",
       "coordinates":  [ -73.9482477,40.8089533 ]
    },
    "properties": {
    "FMID":1009845,
    "MarketName":"125th Street Fresh Connect Farmers' Market",
    "Website":"http://www.125thStreetFarmersMarket.com",
    "street":"163 West 125th Street and Adam Clayton Powell, Jr. Blvd.",
    "city":"New York",
    "County":"New York",
    "State":"New York",
    "zip":"10027"
    }
  },
  {
    "type": "Feature",
    "geometry": {
       "type": "Point",
       "coordinates":  [ -75.53446,39.742117 ]
    },
    "properties": {
    "FMID":1005586,
    "MarketName":"12th & Brandywine Urban Farm Market",
    "Website":"",
    "street":"12th & Brandywine Streets",
    "city":"Wilmington",
    "County":"New Castle",
    "State":"Delaware",
    "zip":"19801"
    }
  },
  {
    "type": "Feature",
    "geometry": {
       "type": "Point",
       "coordinates":  [ -77.0320505,38.9169984 ]
    },
    "properties": {
    "FMID":1008071,
    "MarketName":"14&U Farmers' Market",
    "Website":"",
    "street":"1400 U Street NW ",
    "city":"Washington",
    "County":"District of Columbia",
    "State":"District of Columbia",
    "zip":"20009"
    }
  },
  {
    "type": "Feature",
    "geometry": {
       "type": "Point",
       "coordinates":  [ -77.2316,39.8313 ]
    },
    "properties": {
    "FMID":1007098,
    "MarketName":"17 on the Square",
    "Website":"",
    "street":"17 Lincoln Square",
    "city":"Gettysburg",
    "County":"Adams",
    "State":"Pennsylvania",
    "zip":"17325"
    }
  },
  {
    "type": "Feature",
    "geometry": {
       "type": "Point",
       "coordinates":  [ -73.9378024,40.8459583 ]
    },
    "properties": {
    "FMID":1010284,
    "MarketName":"175th Street Greenmarket",
    "Website":"http://www.grownyc.org/ourmarkets",
    "street":"175th Street at Wadsworth Ave",
    "city":"New York",
    "County":"New York",
    "State":"New York",
    "zip":"10033"
    }
  },
  {
    "type": "Feature",
    "geometry": {
       "type": "Point",
       "coordinates":  [ -93.2591,45.0044 ]
    },
    "properties": {
    "FMID":1003877,
    "MarketName":"17th Ave Market",
    "Website":"http://www.iatp.org/minimarkets",
    "street":"1622 6th St NE",
    "city":"Minneapolis",
    "County":"Hennepin",
    "State":"Minnesota",
    "zip":"55413"
    }
  },
  {
    "type": "Feature",
    "geometry": {
       "type": "Point",
       "coordinates":  [ -77.4886,37.5583 ]
    },
    "properties": {
    "FMID":1002619,
    "MarketName":"17th Street Farmers Market",
    "Website":"http://www.17thstreetfarmersmarket.com",
    "street":"17th & Main Streets",
    "city":"Richmond",
    "County":"Henrico",
    "State":"Virginia",
    "zip":"23219"
    }
  },
  {
    "type": "Feature",
    "geometry": {
       "type": "Point",
       "coordinates":  [ -75.173431,39.940943 ]
    },
    "properties": {
    "FMID":1010968,
    "MarketName":"18th and Christian Farmers' Market",
    "Website":"http://thefoodtrust.org/farmers-markets/market/18th-Christian",
    "street":"18th Street and Christian Street",
    "city":"Philadelphia",
    "County":"Philadelphia",
    "State":"Pennsylvania",
    "zip":"19146"
    }
  },
  {
    "type": "Feature",
    "geometry": {
       "type": "Point",
       "coordinates":  [ -103.662538,41.864268 ]
    },
    "properties": {
    "FMID":1009994,
    "MarketName":"18th Street Farmer's Market",
    "Website":"",
    "street":"18th and Broadway",
    "city":"Scottsbluff",
    "County":"Scotts Bluff",
    "State":"Nebraska",
    "zip":"69361"
    }
  },
  {
    "type": "Feature",
    "geometry": {
       "type": "Point",
       "coordinates":  [ -88.163254,39.490737 ]
    },
    "properties": {
    "FMID":1010376,
    "MarketName":"18th Street Farmers Market",
    "Website":"",
    "street":"825 18th Street",
    "city":"Charleston",
    "County":"Coles",
    "State":"Illinois",
    "zip":"61920"
    }
  },
  {
    "type": "Feature",
    "geometry": {
       "type": "Point",
       "coordinates":  [ -89.831575,44.394819 ]
    },
    "properties": {
    "FMID":1003233,
    "MarketName":"2014 Wood County Farmers' Market",
    "Website":"",
    "street":"555 W. Grand Ave.",
    "city":"Wisconsin Rapids",
    "County":"Wood",
    "State":"Wisconsin",
    "zip":"54495"
    }
  },
  {
    "type": "Feature",
    "geometry": {
       "type": "Point",
       "coordinates":  [ -73.994358,40.404837 ]
    },
    "properties": {
    "FMID":1000709,
    "MarketName":"20th Annual Highlands Business Partnership Farmers Market",
    "Website":"http://www.highlandsnj.com",
    "street":"71 Waterwitch Avenue",
    "city":"Highlands",
    "County":"Monmouth",
    "State":"New Jersey",
    "zip":"7732"
    }
  },
  {
    "type": "Feature",
    "geometry": {
       "type": "Point",
       "coordinates":  [ -95.714514,39.028184 ]
    },
    "properties": {
    "FMID":1010873,
    "MarketName":"21st Street Farmers Market",
    "Website":"",
    "street":"SW 21st and Oakley",
    "city":"Topeka",
    "County":"Shawnee",
    "State":"Kansas",
    "zip":"66604"
    }
  },
  {
    "type": "Feature",
    "geometry": {
       "type": "Point",
       "coordinates":  [ -75.181286,39.932257 ]
    },
    "properties": {
    "FMID":1005309,
    "MarketName":"22nd and Tasker Farmers' Market",
    "Website":"http://thefoodtrust.org/farmers-markets/market/22nd-tasker",
    "street":"22nd and Tasker Streets",
    "city":"Philadelphia",
    "County":"Philadelphia",
    "State":"Pennsylvania",
    "zip":"19146"
    }
  },
  {
    "type": "Feature",
    "geometry": {
       "type": "Point",
       "coordinates":  [ -111.820523,41.778125 ]
    },
    "properties": {
    "FMID":1011010,
    "MarketName":"25th Street Market - North Logan at the Library Summer 20015",
    "Website":"",
    "street":"435 East 2500 North",
    "city":"North Logan ",
    "County":"Cache",
    "State":"Utah",
    "zip":"84341"
    }
  },
  {
    "type": "Feature",
    "geometry": {
       "type": "Point",
       "coordinates":  [ -75.1722883,40.0040946 ]
    },
    "properties": {
    "FMID":1010966,
    "MarketName":"26th and Allegheny",
    "Website":"http://thefoodtrust.org/farmers-markets/market/26th-Allegheny",
    "street":"26th Street and W Allegheny Avenue",
    "city":"Philadelphia",
    "County":"Philadelphia",
    "State":"Pennsylvania",
    "zip":"19129"
    }
  },
  {
    "type": "Feature",
    "geometry": {
       "type": "Point",
       "coordinates":  [ -75.19204,39.9373 ]
    },
    "properties": {
    "FMID":1005299,
    "MarketName":"29th and Wharton Farmers' Market",
    "Website":"http://thefoodtrust.org/farmers-markets/market/29th-wharton",
    "street":"29th and Wharton Streets",
    "city":"Philadelphia",
    "County":"Philadelphia",
    "State":"Pennsylvania",
    "zip":"19146"
    }
  },
  {
    "type": "Feature",
    "geometry": {
       "type": "Point",
       "coordinates":  [ -79.048573,37.583311 ]
    },
    "properties": {
    "FMID":1010994,
    "MarketName":"2nd Street Farmers' Market",
    "Website":"http://secondstageAmherst.org",
    "street":"194 second street",
    "city":"Amherst",
    "County":"Amherst",
    "State":"Virginia",
    "zip":"24521"
    }
  },
  {
    "type": "Feature",
    "geometry": {
       "type": "Point",
       "coordinates":  [ -88.425186,41.356383 ]
    },
    "properties": {
    "FMID":1004950,
    "MarketName":"3 French Hens French Country Market",
    "Website":"http://www.3frenchhensmarket.blogspot.com",
    "street":"123 W. Illinois ave. ",
    "city":"Morris",
    "County":"Grundy",
    "State":"Illinois",
    "zip":"60450"
    }
  },
  {
    "type": "Feature",
    "geometry": {
       "type": "Point",
       "coordinates":  [ -86.002754,30.279017 ]
    },
    "properties": {
    "FMID":1010775,
    "MarketName":"30A Farmers' Market",
    "Website":"",
    "street":"Rosmary Beach Town Center",
    "city":"Rosemary Beach",
    "County":"Walton",
    "State":"Florida",
    "zip":"32461"
    }
  },
  {
    "type": "Feature",
    "geometry": {
       "type": "Point",
       "coordinates":  [ -76.611,39.3272 ]
    },
    "properties": {
    "FMID":1005636,
    "MarketName":"32nd Street/Waverly Farmers Market",
    "Website":"http://www.32ndstreetmarket.org",
    "street":"E. 32nd & Barclay Street",
    "city":"Baltimore",
    "County":"Baltimore",
    "State":"Maryland",
    "zip":"21218"
    }
  },
  {
    "type": "Feature",
    "geometry": {
       "type": "Point",
       "coordinates":  [ -75.187167,39.988802 ]
    },
    "properties": {
    "FMID":1005310,
    "MarketName":"33rd and Diamond Farmers' Market",
    "Website":"http://thefoodtrust.org/farmers-markets/market/33rd-diamond",
    "street":"N 33rd and Diamond Streets",
    "city":"Philadelphia",
    "County":"Philadelphia",
    "State":"Pennsylvania",
    "zip":"19121"
    }
  },
  {
    "type": "Feature",
    "geometry": {
       "type": "Point",
       "coordinates":  [ -86.15875,39.82604 ]
    },
    "properties": {
    "FMID":1003161,
    "MarketName":"38th & Meridian Farmers Market",
    "Website":"",
    "street":"3808 North Meridian Street",
    "city":"Indianapolis",
    "County":"Marion",
    "State":"Indiana",
    "zip":"46208"
    }
  },
  {
    "type": "Feature",
    "geometry": {
       "type": "Point",
       "coordinates":  [ -119.7678,39.16257 ]
    },
    "properties": {
    "FMID":1004414,
    "MarketName":"3rd & Curry St. Farmers Market",
    "Website":"http://www.carsonfarmersmarket.com",
    "street":"3rd & Curry Street",
    "city":"Carson City",
    "County":"Carson City",
    "State":"Nevada",
    "zip":"89703"
    }
  },
  {
    "type": "Feature",
    "geometry": {
       "type": "Point",
       "coordinates":  [ -77.5666043,43.1658344 ]
    },
    "properties": {
    "FMID":1011213,
    "MarketName":"441 Ministries Farm Stand",
    "Website":"",
    "street":"441 Parsells Avenue",
    "city":"Rochester",
    "County":"Monroe",
    "State":"New York",
    "zip":"14609"
    }
  },
  {
    "type": "Feature",
    "geometry": {
       "type": "Point",
       "coordinates":  [ -75.138654,39.991748 ]
    },
    "properties": {
    "FMID":1010965,
    "MarketName":"4th and Lehigh Farmers' Market",
    "Website":"http://thefoodtrust.org/farmers-markets/market/fairhill-square",
    "street":"N 4th Street and W. Lehigh Avenue",
    "city":"Philadelphia",
    "County":"Philadelphia",
    "State":"Pennsylvania",
    "zip":"19133"
    }
  },
  {
    "type": "Feature",
    "geometry": {
       "type": "Point",
       "coordinates":  [ -105.073,40.3954 ]
    },
    "properties": {
    "FMID":1006234,
    "MarketName":"4th Street Farmers Market",
    "Website":"http://www.4thstreetfarmersmarket.com",
    "street":"315 East 4th St.",
    "city":"Larimer",
    "County":"",
    "State":"Colorado",
    "zip":""
    }
  },
  {
    "type": "Feature",
    "geometry": {
       "type": "Point",
       "coordinates":  [ -86.0476,39.8481 ]
    },
    "properties": {
    "FMID":1006494,
    "MarketName":"52 & Shadeland Avenue Farmers Market",
    "Website":"",
    "street":"5200 N. Shadeland Avenue",
    "city":"Indianapolis",
    "County":"",
    "State":"Indiana",
    "zip":"46226"
    }
  },
  {
    "type": "Feature",
    "geometry": {
       "type": "Point",
       "coordinates":  [ -75.224492,39.965054 ]
    },
    "properties": {
    "FMID":1005304,
    "MarketName":"52nd and Haverford Farmers' Market",
    "Website":"http://thefoodtrust.org/farmers-markets/market/52nd-haverford",
    "street":"N 52nd Street and Haverford Avenue",
    "city":"Philadelphia",
    "County":"Philadelphia",
    "State":"Pennsylvania",
    "zip":"19139"
    }
  },
  {
    "type": "Feature",
    "geometry": {
       "type": "Point",
       "coordinates":  [ -73.985839,40.768159 ]
    },
    "properties": {
    "FMID":1000060,
    "MarketName":"57th Street Greenmarket",
    "Website":"http://www.grownyc.org",
    "street":"W 57 St. & 9 Ave",
    "city":"New York",
    "County":"New York",
    "State":"New York",
    "zip":"10019"
    }
  },
  {
    "type": "Feature",
    "geometry": {
       "type": "Point",
       "coordinates":  [ -75.228303,39.935721 ]
    },
    "properties": {
    "FMID":1005306,
    "MarketName":"58th and Chester Farmers' Market",
    "Website":"http://thefoodtrust.org/farmers-markets/market/58th-chester",
    "street":"58th Street and Chester Avenue",
    "city":"Philadelphia",
    "County":"Philadelphia",
    "State":"Pennsylvania",
    "zip":"19143"
    }
  },
  {
    "type": "Feature",
    "geometry": {
       "type": "Point",
       "coordinates":  [ -87.590793,41.784342 ]
    },
    "properties": {
    "FMID":1002678,
    "MarketName":"61st Street Farmers Market",
    "Website":"http://www.experimentalstation.org/farmers-market",
    "street":"6100 S Blackstone",
    "city":"Chicago",
    "County":"Cook",
    "State":"Illinois",
    "zip":"60637"
    }
  },
  {
    "type": "Feature",
    "geometry": {
       "type": "Point",
       "coordinates":  [ -122.4736263,47.255403 ]
    },
    "properties": {
    "FMID":1010386,
    "MarketName":"6th Ave Farmers Market",
    "Website":"http://www.tacomafarmersmarket.com",
    "street":"6th and Pine",
    "city":"Tacoma",
    "County":"Pierce",
    "State":"Washington",
    "zip":"98406"
    }
  },
  {
    "type": "Feature",
    "geometry": {
       "type": "Point",
       "coordinates":  [ -73.9757,40.7818 ]
    },
    "properties": {
    "FMID":1000061,
    "MarketName":"79th Street Greenmarket",
    "Website":"http://www.grownyc.org",
    "street":"Columbus - W 78 & 81 Sts.",
    "city":"New York",
    "County":"New York",
    "State":"New York",
    "zip":"10024"
    }
  },
  {
    "type": "Feature",
    "geometry": {
       "type": "Point",
       "coordinates":  [ -73.95009,40.773749 ]
    },
    "properties": {
    "FMID":1000062,
    "MarketName":"82nd Street Greenmarket",
    "Website":"http://www.grownyc.org",
    "street":"E 82nd St. - 1st & York Ave",
    "city":"New York",
    "County":"New York",
    "State":"New York",
    "zip":"10028"
    }
  },
  {
    "type": "Feature",
    "geometry": {
       "type": "Point",
       "coordinates":  [ -85.449944,31.232252 ]
    },
    "properties": {
    "FMID":1008391,
    "MarketName":"84 west farmers market (Dothan)",
    "Website":"",
    "street":"",
    "city":"Dothan",
    "County":"Houston",
    "State":"Alabama",
    "zip":""
    }
  },
  {
    "type": "Feature",
    "geometry": {
       "type": "Point",
       "coordinates":  [ -91.6626534,41.972837 ]
    },
    "properties": {
    "FMID":1001961,
    "MarketName":"8th Avenue City Farmers Market",
    "Website":"",
    "street":"8th Ave & 2nd St SE",
    "city":"Cedar Rapids",
    "County":"Linn",
    "State":"Iowa",
    "zip":"52401"
    }
  },
  {
    "type": "Feature",
    "geometry": {
       "type": "Point",
       "coordinates":  [ -73.946421,40.780931 ]
    },
    "properties": {
    "FMID":1000063,
    "MarketName":"92nd Street Greenmarket",
    "Website":"http://www.grownyc.org",
    "street":"1st Ave - E 92nd & 93 Sts.",
    "city":"New York",
    "County":"New York",
    "State":"New York",
    "zip":"10128"
    }
  },
  {
    "type": "Feature",
    "geometry": {
       "type": "Point",
       "coordinates":  [ -73.967012,40.79356 ]
    },
    "properties": {
    "FMID":1000064,
    "MarketName":"97th Street Greenmarket",
    "Website":"http://www.grownyc.org",
    "street":"W 97 St. & Columbus",
    "city":"New York",
    "County":"New York",
    "State":"New York",
    "zip":"10025"
    }
  },
  {
    "type": "Feature",
    "geometry": {
       "type": "Point",
       "coordinates":  [ -111.91753,40.747999 ]
    },
    "properties": {
    "FMID":1000986,
    "MarketName":"9th West Farmers Market",
    "Website":"http://www.9thwestfarmersmarket.org",
    "street":"1000 South 900 West",
    "city":"SALT LAKE CITY",
    "County":"Salt Lake",
    "State":"Utah",
    "zip":"84110"
    }
  },
  {
    "type": "Feature",
    "geometry": {
       "type": "Point",
       "coordinates":  [ -80.221052,26.489351 ]
    },
    "properties": {
    "FMID":1010617,
    "MarketName":"A + Organic Farmers Market",
    "Website":"http://organicgrowndirect.com/",
    "street":"Lee Rd. Farm",
    "city":"Boynton Beach ",
    "County":"Palm Beach",
    "State":"Florida",
    "zip":"33473"
    }
  },
  {
    "type": "Feature",
    "geometry": {
       "type": "Point",
       "coordinates":  [ -77.6277075,39.313066 ]
    },
    "properties": {
    "FMID":1001683,
    "MarketName":"A Better Choice Bakery & Market",
    "Website":"",
    "street":"27 W Potomac Street",
    "city":"Brunswick",
    "County":"Frederick",
    "State":"Maryland",
    "zip":"21716"
    }
  },
  {
    "type": "Feature",
    "geometry": {
       "type": "Point",
       "coordinates":  [ -84.2792304,30.4624713 ]
    },
    "properties": {
    "FMID":1009004,
    "MarketName":"A Growers' Market",
    "Website":"",
    "street":"229 Lake Ella Drive",
    "city":"Tallahassee ",
    "County":"Leon",
    "State":"Florida",
    "zip":"32303"
    }
  },
  {
    "type": "Feature",
    "geometry": {
       "type": "Point",
       "coordinates":  [ -85.076795,37.032535 ]
    },
    "properties": {
    "FMID":1002697,
    "MarketName":"A Kentucky Farmer's Market LLC",
    "Website":"",
    "street":"2349 S Hwy 127",
    "city":"Russell Springs",
    "County":"Russell",
    "State":"Kentucky",
    "zip":"42642"
    }
  },
  {
    "type": "Feature",
    "geometry": {
       "type": "Point",
       "coordinates":  [ -82.652159,34.506706 ]
    },
    "properties": {
    "FMID":1001887,
    "MarketName":"AAFFA Community Farmers Market",
    "Website":"",
    "street":"402 North Murray Avenue",
    "city":"Anderson",
    "County":"Anderson",
    "State":"South Carolina",
    "zip":"29624"
    }
  },
  {
    "type": "Feature",
    "geometry": {
       "type": "Point",
       "coordinates":  [ -76.6123,39.006 ]
    },
    "properties": {
    "FMID":1007585,
    "MarketName":"AAMC Farmers's Market",
    "Website":"",
    "street":"2001 Medical Parkway, Sajak Pavilion",
    "city":"Annapolis",
    "County":"Anne Arundel",
    "State":"Maryland",
    "zip":"21401"
    }
  },
  {
    "type": "Feature",
    "geometry": {
       "type": "Point",
       "coordinates":  [ -82.380242,34.177429 ]
    },
    "properties": {
    "FMID":1004573,
    "MarketName":"Abbeville Farmers Market",
    "Website":"",
    "street":"118 Trinity Street at Livery Stable",
    "city":"Abbeville",
    "County":"Abbeville",
    "State":"South Carolina",
    "zip":"29620"
    }
  },
  {
    "type": "Feature",
    "geometry": {
       "type": "Point",
       "coordinates":  [ -85.250365,31.571271 ]
    },
    "properties": {
    "FMID":1009028,
    "MarketName":"ABBEVILLE FARMERS MARKET",
    "Website":"",
    "street":"Kirkland Street",
    "city":"Abbeville ",
    "County":"Henry",
    "State":"Alabama",
    "zip":""
    }
  },
  {
    "type": "Feature",
    "geometry": {
       "type": "Point",
       "coordinates":  [ -90.307145,44.945665 ]
    },
    "properties": {
    "FMID":1004598,
    "MarketName":"Abbotsford Farmers Market",
    "Website":"",
    "street":"1011 East Spruce St.",
    "city":"Abbotsford",
    "County":"Clark",
    "State":"Wisconsin",
    "zip":"54405"
    }
  },
  {
    "type": "Feature",
    "geometry": {
       "type": "Point",
       "coordinates":  [ -93.2629,44.9556 ]
    },
    "properties": {
    "FMID":1003865,
    "MarketName":"Abbott Northwestern Farmers Market",
    "Website":"http://www.iatp.org/minimarkets",
    "street":"800 E 28th St",
    "city":"Minneapolis",
    "County":"Hennepin",
    "State":"Minnesota",
    "zip":""
    }
  },
  {
    "type": "Feature",
    "geometry": {
       "type": "Point",
       "coordinates":  [ -98.4866,45.4631 ]
    },
    "properties": {
    "FMID":1002947,
    "MarketName":"Aberdeen Farmers Market",
    "Website":"http://www.dakotaflavor.com/category.asp?catid=12",
    "street":"2nd Ave., S.E. & S. Lincoln Street",
    "city":"Aberdeen",
    "County":"Brown",
    "State":"South Dakota",
    "zip":"57401"
    }
  },
  {
    "type": "Feature",
    "geometry": {
       "type": "Point",
       "coordinates":  [ -97.2139,38.9153 ]
    },
    "properties": {
    "FMID":1004031,
    "MarketName":"Abilene Farmers Market",
    "Website":"",
    "street":"East 1st & Buckeye St.",
    "city":"Abilene",
    "County":"Dickinson",
    "State":"Kansas",
    "zip":"67410"
    }
  },
  {
    "type": "Feature",
    "geometry": {
       "type": "Point",
       "coordinates":  [ -81.977406,36.708734 ]
    },
    "properties": {
    "FMID":1006744,
    "MarketName":"Abingdon Farmers Market",
    "Website":"http://www.abingdonfarmersmarket.com",
    "street":"Remsburg Drive and Cummings Street",
    "city":"Abingdon",
    "County":"Washington",
    "State":"Virginia",
    "zip":"24210"
    }
  },
  {
    "type": "Feature",
    "geometry": {
       "type": "Point",
       "coordinates":  [ -74.00528,40.737177 ]
    },
    "properties": {
    "FMID":1000065,
    "MarketName":"Abingdon Square Greenmarket",
    "Website":"http://www.grownyc.org",
    "street":"W12 St. & 8th Ave",
    "city":"New York",
    "County":"New York",
    "State":"New York",
    "zip":"10014"
    }
  },
  {
    "type": "Feature",
    "geometry": {
       "type": "Point",
       "coordinates":  [ -70.9369,42.119 ]
    },
    "properties": {
    "FMID":1006988,
    "MarketName":"Abington",
    "Website":"http://www.abingtonsage.com",
    "street":"362 Plymouth Street",
    "city":"Abington",
    "County":"Plymouth",
    "State":"Massachusetts",
    "zip":"2351"
    }
  },
  {
    "type": "Feature",
    "geometry": {
       "type": "Point",
       "coordinates":  [ -75.7746,41.425 ]
    },
    "properties": {
    "FMID":1007070,
    "MarketName":"Abington Farmers Market",
    "Website":"",
    "street":"12055 Rose Drove",
    "city":"Clarks Summit",
    "County":"Lackawanna",
    "State":"Pennsylvania",
    "zip":""
    }
  },
  {
    "type": "Feature",
    "geometry": {
       "type": "Point",
       "coordinates":  [ -90.0389129,30.4793215 ]
    },
    "properties": {
    "FMID":1011313,
    "MarketName":"Abita Springs Farmers Market",
    "Website":"",
    "street":"22049 Main St.",
    "city":"Abita Springs",
    "County":"St. Tammany",
    "State":"Louisiana",
    "zip":"70420"
    }
  },
  {
    "type": "Feature",
    "geometry": {
       "type": "Point",
       "coordinates":  [ -106.565838,35.103988 ]
    },
    "properties": {
    "FMID":1004762,
    "MarketName":"ABQ Uptown Growers' Market",
    "Website":"http://www.abquptowngrowersmarket.org",
    "street":"NE parking lot of ABQ Uptown shopping center",
    "city":"Albququerque",
    "County":"Bernalillo",
    "State":"New Mexico",
    "zip":""
    }
  },
  {
    "type": "Feature",
    "geometry": {
       "type": "Point",
       "coordinates":  [ -75.0998,40.8743 ]
    },
    "properties": {
    "FMID":1009543,
    "MarketName":"ABV Farm Market",
    "Website":"http://www.appleblossomvillage.com/",
    "street":"690 Allegheny Road",
    "city":"Mount Bethe",
    "County":"",
    "State":"Pennsylvania",
    "zip":"18343"
    }
  },
  {
    "type": "Feature",
    "geometry": {
       "type": "Point",
       "coordinates":  [ -68.9716,44.5908 ]
    },
    "properties": {
    "FMID":1002108,
    "MarketName":"Acadia Farmers' Market in Town Hill",
    "Website":"",
    "street":"",
    "city":"Town Hill",
    "County":"Hancock",
    "State":"Maine",
    "zip":""
    }
  },
  {
    "type": "Feature",
    "geometry": {
       "type": "Point",
       "coordinates":  [ -92.0634,30.2147 ]
    },
    "properties": {
    "FMID":1007575,
    "MarketName":"Acadiana Farmers Market",
    "Website":"",
    "street":"801 Foreman Drive",
    "city":"Opelousas",
    "County":"Lafayette",
    "State":"Louisiana",
    "zip":"70570"
    }
  },
  {
    "type": "Feature",
    "geometry": {
       "type": "Point",
       "coordinates":  [ -75.4541,43.2098 ]
    },
    "properties": {
    "FMID":1005122,
    "MarketName":"Ace Farmers Market",
    "Website":"",
    "street":"115 Black River Blvd",
    "city":"Rome",
    "County":"Oneida",
    "State":"New York",
    "zip":""
    }
  },
  {
    "type": "Feature",
    "geometry": {
       "type": "Point",
       "coordinates":  [ -91.492638,36.991165 ]
    },
    "properties": {
    "FMID":1008461,
    "MarketName":"Acme Ranch Truck Patch",
    "Website":"http://agrimissouri.com/mo-grown/grodetail.php?type=mo-grown&ID=1877",
    "street":"RR1 Box 146",
    "city":"Birch Tree",
    "County":"Shannon",
    "State":"Missouri",
    "zip":"65438"
    }
  },
  {
    "type": "Feature",
    "geometry": {
       "type": "Point",
       "coordinates":  [ -80.263351,26.775639 ]
    },
    "properties": {
    "FMID":1011180,
    "MarketName":"Acreage Green Market",
    "Website":"http://Www.AcreageGreenMarket.com",
    "street":"6701 140th Ave. North",
    "city":"Loxahatchee",
    "County":"Palm Beach",
    "State":"Florida",
    "zip":"33470"
    }
  },
  {
    "type": "Feature",
    "geometry": {
       "type": "Point",
       "coordinates":  [ -71.47415,42.47518 ]
    },
    "properties": {
    "FMID":1003469,
    "MarketName":"Acton-Boxborough Farmers Market",
    "Website":"http://www.ABFarmersMarket.org",
    "street":"1 Pearl St",
    "city":"Acton",
    "County":"Middlesex",
    "State":"Massachusetts",
    "zip":"1720"
    }
  },
  {
    "type": "Feature",
    "geometry": {
       "type": "Point",
       "coordinates":  [ -70.900663,41.720547 ]
    },
    "properties": {
    "FMID":1003112,
    "MarketName":"Acushnet Farmers Market ",
    "Website":"http://www.acushnetfarmersmarket.com",
    "street":"186 Leonard Street",
    "city":"Acushnet",
    "County":"Bristol",
    "State":"Massachusetts",
    "zip":"2743"
    }
  },
  {
    "type": "Feature",
    "geometry": {
       "type": "Point",
       "coordinates":  [ -84.6767,34.0657 ]
    },
    "properties": {
    "FMID":1007519,
    "MarketName":"Acworth Farmers Market",
    "Website":"",
    "street":"Main and Lemon Streets",
    "city":"Acworth",
    "County":"Cobb",
    "State":"Georgia",
    "zip":""
    }
  },
  {
    "type": "Feature",
    "geometry": {
       "type": "Point",
       "coordinates":  [ -96.679869,34.773589 ]
    },
    "properties": {
    "FMID":1001393,
    "MarketName":"Ada Farmer's Market",
    "Website":"",
    "street":"12th Street and Townsend",
    "city":"Ada",
    "County":"Pontotoc",
    "State":"Oklahoma",
    "zip":"74820"
    }
  },
  {
    "type": "Feature",
    "geometry": {
       "type": "Point",
       "coordinates":  [ -85.4889683,42.9553715 ]
    },
    "properties": {
    "FMID":1001083,
    "MarketName":"Ada Farmers' Market",
    "Website":"http://www.adafarmersmarket.com",
    "street":"7239 Thornapple River Dr.",
    "city":"Ada",
    "County":"Kent",
    "State":"Michigan",
    "zip":"49301"
    }
  },
  {
    "type": "Feature",
    "geometry": {
       "type": "Point",
       "coordinates":  [ -85.297,37.1043 ]
    },
    "properties": {
    "FMID":1006969,
    "MarketName":"AdairCo Farmers Market",
    "Website":"",
    "street":"409 Fairground Street, Adair County co-op ext service parking lot",
    "city":"Columbia",
    "County":"Adair County",
    "State":"Kentucky",
    "zip":""
    }
  },
  {
    "type": "Feature",
    "geometry": {
       "type": "Point",
       "coordinates":  [ -84.929569,34.375727 ]
    },
    "properties": {
    "FMID":1010467,
    "MarketName":"Adairsville Farmers' Market",
    "Website":"http://www.adairsvillefarmersmarket.com",
    "street":"7446 Ga 140",
    "city":"Adairsville",
    "County":"Bartow",
    "State":"Georgia",
    "zip":"30103"
    }
  },
  {
    "type": "Feature",
    "geometry": {
       "type": "Point",
       "coordinates":  [ -77.235048,39.819638 ]
    },
    "properties": {
    "FMID":1011322,
    "MarketName":"Adams County Farmers' Market Association (PA)",
    "Website":"http://www.acfarmersmarkets.org",
    "street":"297 Steinwehr Ave at Culp Street",
    "city":"Gettysburg borough",
    "County":"Adams",
    "State":"Pennsylvania",
    "zip":"17325"
    }
  },
  {
    "type": "Feature",
    "geometry": {
       "type": "Point",
       "coordinates":  [ -77.201516,39.793992 ]
    },
    "properties": {
    "FMID":1011328,
    "MarketName":"Adams County Farmers' Market Association (PA)",
    "Website":"http://www.acfarmersmarkets.org",
    "street":"The Outlet Shoppes at Gettysburg-Center Gazebo",
    "city":"Gettysburg",
    "County":"Adams",
    "State":"Pennsylvania",
    "zip":"17325"
    }
  },
  {
    "type": "Feature",
    "geometry": {
       "type": "Point",
       "coordinates":  [ -73.118003,42.6244919 ]
    },
    "properties": {
    "FMID":1010354,
    "MarketName":"Adams Farmers' & Artisans' Market",
    "Website":"",
    "street":"Adams Visitors Center  3 Hoosac St",
    "city":"Adams",
    "County":"Berkshire",
    "State":"Massachusetts",
    "zip":"1220"
    }
  },
  {
    "type": "Feature",
    "geometry": {
       "type": "Point",
       "coordinates":  [ -77.042643,38.922637 ]
    },
    "properties": {
    "FMID":1008006,
    "MarketName":"Adams Morgan Farmers Market",
    "Website":"http://www.lickingcreekbendfarm.com",
    "street":"18th St. and Columbia Rd. NW",
    "city":"Washington",
    "County":"District of Columbia",
    "State":"District of Columbia",
    "zip":"20009"
    }
  },
  {
    "type": "Feature",
    "geometry": {
       "type": "Point",
       "coordinates":  [ -155.923558,19.525757 ]
    },
    "properties": {
    "FMID":1008961,
    "MarketName":"Adaptations' Fresh Feast",
    "Website":"http://www.adaptationsaloha.com",
    "street":"79-7500 Mamalahoa Highway",
    "city":"Kealakekua",
    "County":"Hawaii",
    "State":"Hawaii",
    "zip":"96750"
    }
  },
  {
    "type": "Feature",
    "geometry": {
       "type": "Point",
       "coordinates":  [ -74.0231,40.6875 ]
    },
    "properties": {
    "FMID":1005109,
    "MarketName":"Added Value Farm Stand at Governors Island",
    "Website":"",
    "street":"Gresham Rd",
    "city":"Brooklyn",
    "County":"Kings",
    "State":"New York",
    "zip":"11231-1235"
    }
  },
  {
    "type": "Feature",
    "geometry": {
       "type": "Point",
       "coordinates":  [ -87.9934,41.9321 ]
    },
    "properties": {
    "FMID":1002464,
    "MarketName":"Addison Farmers Market",
    "Website":"",
    "street":"One Friendship Plaza",
    "city":"Addison",
    "County":"DuPage",
    "State":"Illinois",
    "zip":"60101"
    }
  },
  {
    "type": "Feature",
    "geometry": {
       "type": "Point",
       "coordinates":  [ -94.0175,41.6144 ]
    },
    "properties": {
    "FMID":1005741,
    "MarketName":"Adel Farmers Market",
    "Website":"",
    "street":"Courthouse Square",
    "city":"Adel",
    "County":"Dallas",
    "State":"Iowa",
    "zip":"50830"
    }
  },
  {
    "type": "Feature",
    "geometry": {
       "type": "Point",
       "coordinates":  [ -117.405,34.5593 ]
    },
    "properties": {
    "FMID":1005272,
    "MarketName":"Adelanto Stadium Farmers Market",
    "Website":"",
    "street":"Hwy 395 & Rancho Drive",
    "city":"Victorville",
    "County":"San Bernardino",
    "State":"California",
    "zip":"92392"
    }
  },
  {
    "type": "Feature",
    "geometry": {
       "type": "Point",
       "coordinates":  [ -84.0351,41.9002 ]
    },
    "properties": {
    "FMID":1009370,
    "MarketName":"Adrian Farmers Market",
    "Website":"",
    "street":"115 Toledo Street",
    "city":"Adrian",
    "County":"",
    "State":"Michigan",
    "zip":"49221"
    }
  },
  {
    "type": "Feature",
    "geometry": {
       "type": "Point",
       "coordinates":  [ -77.6360764,43.1466026 ]
    },
    "properties": {
    "FMID":1011214,
    "MarketName":"Aenon Baptist Church Farm Stand",
    "Website":"",
    "street":"175 Genesee Street",
    "city":"Rochester",
    "County":"Monroe",
    "State":"New York",
    "zip":"14611"
    }
  },
  {
    "type": "Feature",
    "geometry": {
       "type": "Point",
       "coordinates":  [ -80.670172,35.414038 ]
    },
    "properties": {
    "FMID":1008667,
    "MarketName":"Afton Village Farmers Market",
    "Website":"http://www.piedmont-farmersmarket.com",
    "street":"5401 Village Dr",
    "city":"Concord",
    "County":"Cabarrus",
    "State":"North Carolina",
    "zip":"28027"
    }
  },
  {
    "type": "Feature",
    "geometry": {
       "type": "Point",
       "coordinates":  [ -75.2113,38.3388 ]
    },
    "properties": {
    "FMID":1007586,
    "MarketName":"AGH Wellness Committee Farmer's Market",
    "Website":"",
    "street":"9733 Healthway Drive",
    "city":"Berlin",
    "County":"Worcester",
    "State":"Maryland",
    "zip":"21811"
    }
  },
  {
    "type": "Feature",
    "geometry": {
       "type": "Point",
       "coordinates":  [ -89.801873,35.127315 ]
    },
    "properties": {
    "FMID":1003178,
    "MarketName":"Agricenter International Farmers Market",
    "Website":"http://www.agricenter.org",
    "street":"7777 Walnut Grove Road",
    "city":"Memphis",
    "County":"Shelby",
    "State":"Tennessee",
    "zip":"38120"
    }
  },
  {
    "type": "Feature",
    "geometry": {
       "type": "Point",
       "coordinates":  [ -111.726215,33.321658 ]
    },
    "properties": {
    "FMID":1003562,
    "MarketName":"Agritopia Farm Stand",
    "Website":"http://www.thefarmatagritopia.com",
    "street":"3000 E. Ray Road (Higley & Ray)",
    "city":"Gilbert",
    "County":"Maricopa",
    "State":"Arizona",
    "zip":"85233"
    }
  },
  {
    "type": "Feature",
    "geometry": {
       "type": "Point",
       "coordinates":  [ -111.983511,33.331116 ]
    },
    "properties": {
    "FMID":1009915,
    "MarketName":"Ahwatukee Farmers Market",
    "Website":"http://arizonacommunityfarmersmarkets.com",
    "street":"4700 E. Warner Rd.",
    "city":"Phoenix",
    "County":"Maricopa",
    "State":"Arizona",
    "zip":"85033"
    }
  },
  {
    "type": "Feature",
    "geometry": {
       "type": "Point",
       "coordinates":  [ -81.7084941,33.5568819 ]
    },
    "properties": {
    "FMID":1000212,
    "MarketName":"Aiken County Farmers Market",
    "Website":"http://www.VisitAikenSC.com",
    "street":"897 Richland Avenue East",
    "city":"Aiken",
    "County":"Aiken",
    "State":"South Carolina",
    "zip":"29801"
    }
  },
  {
    "type": "Feature",
    "geometry": {
       "type": "Point",
       "coordinates":  [ -82.441117,28.48114 ]
    },
    "properties": {
    "FMID":1008054,
    "MarketName":"Airport Farmers and Flea Market",
    "Website":"",
    "street":"17375 Spring Hill Dr",
    "city":"Brooksville",
    "County":"Hernando",
    "State":"Florida",
    "zip":"34604"
    }
  },
  {
    "type": "Feature",
    "geometry": {
       "type": "Point",
       "coordinates":  [ -154.951,19.4975 ]
    },
    "properties": {
    "FMID":1007542,
    "MarketName":"Akebono Farmers�۪ Market",
    "Website":"",
    "street":"Akebono Parking Lot",
    "city":"Pahoa",
    "County":"Hawaii County",
    "State":"Hawaii",
    "zip":""
    }
  },
  {
    "type": "Feature",
    "geometry": {
       "type": "Point",
       "coordinates":  [ -86.7014,30.7979 ]
    },
    "properties": {
    "FMID":1001374,
    "MarketName":"Akers of Strawberries",
    "Website":"",
    "street":"1054 Melton Rd.",
    "city":"Baker",
    "County":"Okaloosa",
    "State":"Florida",
    "zip":"32531"
    }
  },
  {
    "type": "Feature",
    "geometry": {
       "type": "Point",
       "coordinates":  [ -96.5573,42.8309 ]
    },
    "properties": {
    "FMID":1001801,
    "MarketName":"Akron Farmers Market",
    "Website":"",
    "street":"City Park",
    "city":"Akron",
    "County":"Plymouth",
    "State":"Iowa",
    "zip":"51031"
    }
  },
  {
    "type": "Feature",
    "geometry": {
       "type": "Point",
       "coordinates":  [ -74.6677,44.9739 ]
    },
    "properties": {
    "FMID":1005061,
    "MarketName":"Akwesasne Farmers Market",
    "Website":"",
    "street":"469 State Route 37, across from Akwesasne Sports",
    "city":"Hogansburg",
    "County":"Franklin",
    "State":"New York",
    "zip":""
    }
  },
  {
    "type": "Feature",
    "geometry": {
       "type": "Point",
       "coordinates":  [ -87.65585,30.250746 ]
    },
    "properties": {
    "FMID":1004086,
    "MarketName":"Alabama Gulf Coast Market",
    "Website":"",
    "street":"22250 Perdido Beach Boulevard",
    "city":"Gulf Shores",
    "County":"Baldwin",
    "State":"Alabama",
    "zip":"36542"
    }
  },
  {
    "type": "Feature",
    "geometry": {
       "type": "Point",
       "coordinates":  [ -82.352515,29.710665 ]
    },
    "properties": {
    "FMID":1008612,
    "MarketName":"Alachua County Farmers' Market",
    "Website":"http://www.441market.com",
    "street":"5920 NW 13th Street",
    "city":"Gainesville",
    "County":"Alachua",
    "State":"Florida",
    "zip":"32653"
    }
  },
  {
    "type": "Feature",
    "geometry": {
       "type": "Point",
       "coordinates":  [ -79.4357,36.0943 ]
    },
    "properties": {
    "FMID":1006312,
    "MarketName":"Alamance County Farmers Market",
    "Website":"",
    "street":"200 S. Main St.",
    "city":"Burlington",
    "County":"Alamance",
    "State":"North Carolina",
    "zip":"27215"
    }
  },
  {
    "type": "Feature",
    "geometry": {
       "type": "Point",
       "coordinates":  [ -122.276762,37.774248 ]
    },
    "properties": {
    "FMID":1009019,
    "MarketName":"Alameda Farmers' Market",
    "Website":"http://www.pcfma.com",
    "street":"Haight and Webster St.",
    "city":"Alameda",
    "County":"Alameda",
    "State":"California",
    "zip":""
    }
  },
  {
    "type": "Feature",
    "geometry": {
       "type": "Point",
       "coordinates":  [ -115.1435,37.33075 ]
    },
    "properties": {
    "FMID":1004846,
    "MarketName":"Alamo Farmers Market",
    "Website":"",
    "street":"Buckhorn Ranch Road",
    "city":"Alamo",
    "County":"Lincoln",
    "State":"Nevada",
    "zip":"89001"
    }
  },
  {
    "type": "Feature",
    "geometry": {
       "type": "Point",
       "coordinates":  [ -105.960635,32.913868 ]
    },
    "properties": {
    "FMID":1011033,
    "MarketName":"Alamogordo Alameda Park Farmers' Market",
    "Website":"",
    "street":"1987 White Sands Blvd",
    "city":"Alamogordo ",
    "County":"Otero",
    "State":"New Mexico",
    "zip":"88310"
    }
  },
  {
    "type": "Feature",
    "geometry": {
       "type": "Point",
       "coordinates":  [ -105.9606,32.92649 ]
    },
    "properties": {
    "FMID":1004789,
    "MarketName":"Alamogordo Otero County Farmers' Market",
    "Website":"http://farmersmarketsnm.org/Shoppers/FindMarket/find.php",
    "street":"401 Fairgrounds Rd",
    "city":"Alamogordo",
    "County":"Otero",
    "State":"New Mexico",
    "zip":""
    }
  },
  {
    "type": "Feature",
    "geometry": {
       "type": "Point",
       "coordinates":  [ -105.865236,37.468359 ]
    },
    "properties": {
    "FMID":1004070,
    "MarketName":"Alamosa Farmers Market",
    "Website":"http://www.alamosafarmersmarket.org",
    "street":"Corner of 6th Street and State Avenue's Municipal Parking Lot",
    "city":"Alamosa",
    "County":"Alamosa",
    "State":"Colorado",
    "zip":"81101"
    }
  },
  {
    "type": "Feature",
    "geometry": {
       "type": "Point",
       "coordinates":  [ -84.15366,31.57684 ]
    },
    "properties": {
    "FMID":1004425,
    "MarketName":"Albany  Downtown Farmers Market",
    "Website":"http://www.eastbaker.net",
    "street":"Corner of W. Broad Ave. & N. Jackson St.",
    "city":"Albany",
    "County":"Dougherty",
    "State":"Georgia",
    "zip":"31702"
    }
  },
  {
    "type": "Feature",
    "geometry": {
       "type": "Point",
       "coordinates":  [ -123.1061,44.6349 ]
    },
    "properties": {
    "FMID":1002175,
    "MarketName":"Albany Farmers' Market",
    "Website":"http://www.locallygrown.org",
    "street":"4th Avenue & Ellsworth Street",
    "city":"Albany",
    "County":"Linn",
    "State":"Oregon",
    "zip":"97321"
    }
  },
  {
    "type": "Feature",
    "geometry": {
       "type": "Point",
       "coordinates":  [ -93.368932,43.650895 ]
    },
    "properties": {
    "FMID":1011108,
    "MarketName":"Albert Lea Farmers Market",
    "Website":"http://albertleafarmersmarket.com",
    "street":"104 North Broadway",
    "city":"Albert Lea",
    "County":"Freeborn",
    "State":"Minnesota",
    "zip":""
    }
  },
  {
    "type": "Feature",
    "geometry": {
       "type": "Point",
       "coordinates":  [ -122.65,45.5591 ]
    },
    "properties": {
    "FMID":1003118,
    "MarketName":"Alberta Farmers Market",
    "Website":"",
    "street":"1500 NE Alberta Street",
    "city":"Portland",
    "County":"Multnomah",
    "State":"Oregon",
    "zip":"97211"
    }
  },
  {
    "type": "Feature",
    "geometry": {
       "type": "Point",
       "coordinates":  [ -87.4101,32.2319 ]
    },
    "properties": {
    "FMID":1004886,
    "MarketName":"ALBERTA FARMERS MARKET",
    "Website":"",
    "street":"21724 Highway 5��",
    "city":"ALBERTA",
    "County":"WILCOX",
    "State":"Alabama",
    "zip":"36720"
    }
  },
  {
    "type": "Feature",
    "geometry": {
       "type": "Point",
       "coordinates":  [ -84.751569,42.243544 ]
    },
    "properties": {
    "FMID":1010559,
    "MarketName":"Albion Farmer's Market",
    "Website":"http://greateralbionchamber.org",
    "street":"211 Market Place",
    "city":"Albion",
    "County":"Cass",
    "State":"Michigan",
    "zip":"49224"
    }
  },
  {
    "type": "Feature",
    "geometry": {
       "type": "Point",
       "coordinates":  [ -106.656893,35.085972 ]
    },
    "properties": {
    "FMID":1010407,
    "MarketName":"Albuquerque Downtown Growers' Market",
    "Website":"http://DowntownGrowers.com",
    "street":"800 Central Ave",
    "city":"Albuquerque ",
    "County":"Bernalillo",
    "State":"New Mexico",
    "zip":"87102"
    }
  },
  {
    "type": "Feature",
    "geometry": {
       "type": "Point",
       "coordinates":  [ -106.55762,35.1506 ]
    },
    "properties": {
    "FMID":1004761,
    "MarketName":"Albuquerque Northeast Farmers' Market",
    "Website":"http://www.abqnemarket.org",
    "street":"6400 Wyoming Blvd",
    "city":"Albuquerque",
    "County":"Bernalillo",
    "State":"New Mexico",
    "zip":""
    }
  },
  {
    "type": "Feature",
    "geometry": {
       "type": "Point",
       "coordinates":  [ -106.578,35.0553 ]
    },
    "properties": {
    "FMID":1007016,
    "MarketName":"Albuquerque VA Growers' Market",
    "Website":"",
    "street":"1501 San Pedro Drive SE",
    "city":"Albuquerque",
    "County":"Bernalillo",
    "State":"New Mexico",
    "zip":""
    }
  },
  {
    "type": "Feature",
    "geometry": {
       "type": "Point",
       "coordinates":  [ -83.2973,44.6547 ]
    },
    "properties": {
    "FMID":1002222,
    "MarketName":"Alcona Farmers Market",
    "Website":"http://www.alconalocalfoods.org",
    "street":"320 S. State Steet   (US23)",
    "city":"Harrisville",
    "County":"Alcona",
    "State":"Michigan",
    "zip":"48740"
    }
  },
  {
    "type": "Feature",
    "geometry": {
       "type": "Point",
       "coordinates":  [ -80.642024,37.725954 ]
    },
    "properties": {
    "FMID":1008252,
    "MarketName":"Alderson Farmers Market ",
    "Website":"http://www.aldersonmarket.org",
    "street":"Rt. 3  Main Street",
    "city":"Alderson ",
    "County":"Greenbrier",
    "State":"West Virginia",
    "zip":"24910"
    }
  },
  {
    "type": "Feature",
    "geometry": {
       "type": "Point",
       "coordinates":  [ -93.0877,44.9609 ]
    },
    "properties": {
    "FMID":1003236,
    "MarketName":"Aldrich Arena Farmers Market",
    "Website":"http://www.stpaulfarmersmarket.com",
    "street":"1850 White Bear Ave.",
    "city":"Maplewood",
    "County":"Ramsey",
    "State":"Minnesota",
    "zip":"55109"
    }
  },
  {
    "type": "Feature",
    "geometry": {
       "type": "Point",
       "coordinates":  [ -89.5751039,37.375748 ]
    },
    "properties": {
    "FMID":1011545,
    "MarketName":"Alene's Garden",
    "Website":"",
    "street":"4906 State Highway Z",
    "city":"Cape Girardeau",
    "County":"Cape Girardeau",
    "State":"Missouri",
    "zip":"63701"
    }
  },
  {
    "type": "Feature",
    "geometry": {
       "type": "Point",
       "coordinates":  [ -85.9549,32.9442 ]
    },
    "properties": {
    "FMID":1007238,
    "MarketName":"Alexander City Downtown Market",
    "Website":"http://www.mainstreetac.org",
    "street":"Braod Street",
    "city":"Alexander City",
    "County":"Tallapoosa",
    "State":"Alabama",
    "zip":"35010"
    }
  },
  {
    "type": "Feature",
    "geometry": {
       "type": "Point",
       "coordinates":  [ -81.178122,35.919748 ]
    },
    "properties": {
    "FMID":1010597,
    "MarketName":"Alexander County Farmers Market",
    "Website":"",
    "street":"280 NC Hwy 16 South",
    "city":"Taylorsville ",
    "County":"Alexander",
    "State":"North Carolina",
    "zip":"28681"
    }
  },
  {
    "type": "Feature",
    "geometry": {
       "type": "Point",
       "coordinates":  [ -75.9157,44.3314 ]
    },
    "properties": {
    "FMID":1000519,
    "MarketName":"Alexandria Bay Farmers Market",
    "Website":"http://www.visitalexbay.org",
    "street":"Route 12",
    "city":"Alexandria Bay",
    "County":"Jefferson",
    "State":"New York",
    "zip":"13607"
    }
  },
  {
    "type": "Feature",
    "geometry": {
       "type": "Point",
       "coordinates":  [ -95.376059,45.89074 ]
    },
    "properties": {
    "FMID":1007366,
    "MarketName":"Alexandria Farmers' Market",
    "Website":"http://www.mfma.org/alexandria",
    "street":"2nd and Broadway",
    "city":"Alexandria",
    "County":"Douglas",
    "State":"Minnesota",
    "zip":"56308"
    }
  },
  {
    "type": "Feature",
    "geometry": {
       "type": "Point",
       "coordinates":  [ -77.789505,42.253557 ]
    },
    "properties": {
    "FMID":1011196,
    "MarketName":"alfred farmers market",
    "Website":"https://www.alfredfarmersmarket.com",
    "street":"Bandstand Main Street",
    "city":"Alfred",
    "County":"Allegany",
    "State":"New York",
    "zip":"14802"
    }
  },
  {
    "type": "Feature",
    "geometry": {
       "type": "Point",
       "coordinates":  [ -87.4363,44.6077 ]
    },
    "properties": {
    "FMID":1007217,
    "MarketName":"Algoma Farm Market",
    "Website":"",
    "street":"SECOND ST. & CLARK STREET",
    "city":"Algoma",
    "County":"Kewaunee",
    "State":"Wisconsin",
    "zip":""
    }
  },
  {
    "type": "Feature",
    "geometry": {
       "type": "Point",
       "coordinates":  [ -88.293,42.165 ]
    },
    "properties": {
    "FMID":1001300,
    "MarketName":"Algonquin Farmers Market",
    "Website":"",
    "street":"Washington St & S Harrison St.",
    "city":"Algonquin",
    "County":"",
    "State":"Illinois",
    "zip":"60102"
    }
  },
  {
    "type": "Feature",
    "geometry": {
       "type": "Point",
       "coordinates":  [ -155.982,19.6144 ]
    },
    "properties": {
    "FMID":1007528,
    "MarketName":"Alii Garden Market Place",
    "Website":"",
    "street":"75-6129 Alii Drive",
    "city":"Kailua-Kona",
    "County":"",
    "State":"Hawaii",
    "zip":"96740"
    }
  },
  {
    "type": "Feature",
    "geometry": {
       "type": "Point",
       "coordinates":  [ -121.634178,36.673319 ]
    },
    "properties": {
    "FMID":1008835,
    "MarketName":"Alisal Certified Farmers' Market",
    "Website":"http://www.everyonesharvest.org",
    "street":"632 East Alisal Street",
    "city":"Salinas",
    "County":"Monterey",
    "State":"California",
    "zip":"93905"
    }
  },
  {
    "type": "Feature",
    "geometry": {
       "type": "Point",
       "coordinates":  [ -80.508789,25.51147 ]
    },
    "properties": {
    "FMID":1005548,
    "MarketName":"All Locally Grown Produce",
    "Website":"http://www.teenaspridecsa.com",
    "street":"20025 SW 270 Street",
    "city":"Homestead",
    "County":"Miami-Dade",
    "State":"Florida",
    "zip":"33031"
    }
  },
  {
    "type": "Feature",
    "geometry": {
       "type": "Point",
       "coordinates":  [ -89.890478,35.090458 ]
    },
    "properties": {
    "FMID":1010096,
    "MarketName":"All Saints' Farmers Market",
    "Website":"",
    "street":"1508 S. White Station",
    "city":"Memphis",
    "County":"Shelby",
    "State":"Tennessee",
    "zip":"38117"
    }
  },
  {
    "type": "Feature",
    "geometry": {
       "type": "Point",
       "coordinates":  [ -81.0358,33.9847 ]
    },
    "properties": {
    "FMID":1000268,
    "MarketName":"All-Local Farmers Market",
    "Website":"http://www.stateplate.org",
    "street":"711 Whaley St",
    "city":"Columbia",
    "County":"Richland",
    "State":"South Carolina",
    "zip":"29205"
    }
  },
  {
    "type": "Feature",
    "geometry": {
       "type": "Point",
       "coordinates":  [ -81.0044,33.9874 ]
    },
    "properties": {
    "FMID":1000168,
    "MarketName":"All-Local Farmers Market 2",
    "Website":"http://www.localharvest.org",
    "street":"Rosewood market on Rosewood Drive at Maple Street",
    "city":"Columbia",
    "County":"Richland",
    "State":"South Carolina",
    "zip":""
    }
  },
  {
    "type": "Feature",
    "geometry": {
       "type": "Point",
       "coordinates":  [ -91.4742,43.2569 ]
    },
    "properties": {
    "FMID":1001962,
    "MarketName":"Allamakee Farmers Market",
    "Website":"",
    "street":"1013 Rossville Road",
    "city":"Waukon",
    "County":"Allamakee",
    "State":"Iowa",
    "zip":"52172"
    }
  },
  {
    "type": "Feature",
    "geometry": {
       "type": "Point",
       "coordinates":  [ -85.8584,42.5287 ]
    },
    "properties": {
    "FMID":1002717,
    "MarketName":"Allegan Farmers Market",
    "Website":"",
    "street":"Water & Cutler",
    "city":"Allegan",
    "County":"Allegan",
    "State":"Michigan",
    "zip":"49010"
    }
  },
  {
    "type": "Feature",
    "geometry": {
       "type": "Point",
       "coordinates":  [ -81.122593,36.503003 ]
    },
    "properties": {
    "FMID":1008262,
    "MarketName":"Alleghany Farmers Market",
    "Website":"http://www.alleghanyfarmersmarket.com",
    "street":"HWY 18 N",
    "city":"Sparta",
    "County":"Alleghany",
    "State":"North Carolina",
    "zip":"28675"
    }
  },
  {
    "type": "Feature",
    "geometry": {
       "type": "Point",
       "coordinates":  [ -95.4055011,37.922165 ]
    },
    "properties": {
    "FMID":1002836,
    "MarketName":"Allen County Farmers' Market",
    "Website":"",
    "street":"4-20 S. Washington St.",
    "city":"Iola",
    "County":"Allen",
    "State":"Kansas",
    "zip":"66749"
    }
  },
  {
    "type": "Feature",
    "geometry": {
       "type": "Point",
       "coordinates":  [ -84.527155,42.730056 ]
    },
    "properties": {
    "FMID":1008454,
    "MarketName":"Allen Street Farmers Market",
    "Website":"http://www.allenmarketplace.org/farmers-market/",
    "street":"1619 E. Kalamazoo",
    "city":"Lansing",
    "County":"Ingham",
    "State":"Michigan",
    "zip":"48912"
    }
  },
  {
    "type": "Feature",
    "geometry": {
       "type": "Point",
       "coordinates":  [ -81.3191,33.0044 ]
    },
    "properties": {
    "FMID":1007413,
    "MarketName":"Allendale County Farmers Market",
    "Website":"",
    "street":"Corner of Bay Street & US Highway 301",
    "city":"Allendale",
    "County":"Allendale",
    "State":"South Carolina",
    "zip":"29810"
    }
  },
  {
    "type": "Feature",
    "geometry": {
       "type": "Point",
       "coordinates":  [ -75.4942,40.6008 ]
    },
    "properties": {
    "FMID":1007716,
    "MarketName":"Allentown Farigrounds Farmers Market",
    "Website":"http://www.fairgroundsfarmersmkt.com",
    "street":"1825 Chew Street",
    "city":"Allentown",
    "County":"Lehigh",
    "State":"Pennsylvania",
    "zip":"18104"
    }
  },
  {
    "type": "Feature",
    "geometry": {
       "type": "Point",
       "coordinates":  [ -79.7254,40.6218 ]
    },
    "properties": {
    "FMID":1007083,
    "MarketName":"Allentown Turnpike Plaza Farmers Market",
    "Website":"",
    "street":"Route 9",
    "city":"Allentown",
    "County":"Lehigh",
    "State":"Pennsylvania",
    "zip":"18104"
    }
  },
  {
    "type": "Feature",
    "geometry": {
       "type": "Point",
       "coordinates":  [ -102.871,42.0971 ]
    },
    "properties": {
    "FMID":1002964,
    "MarketName":"Alliance Farmers Market",
    "Website":"",
    "street":"3rd & Box Butte Ave.",
    "city":"Alliance",
    "County":"Box Butte",
    "State":"Nebraska",
    "zip":"69301"
    }
  },
  {
    "type": "Feature",
    "geometry": {
       "type": "Point",
       "coordinates":  [ -81.1024,40.9216 ]
    },
    "properties": {
    "FMID":1005675,
    "MarketName":"Alliance Farmers' Market",
    "Website":"http://www.alliancefarmersmarket.com",
    "street":"Corner of E. Main St. and Mechanic Ave.",
    "city":"Alliance",
    "County":"Stark",
    "State":"Ohio",
    "zip":"44601"
    }
  },
  {
    "type": "Feature",
    "geometry": {
       "type": "Point",
       "coordinates":  [ -81.89128,26.59521 ]
    },
    "properties": {
    "FMID":1006739,
    "MarketName":"Alliance for the Arts GreenMarket",
    "Website":"http://www.artinlee.org",
    "street":"10091 McGregor Boulevard",
    "city":"Ft. Myers",
    "County":"Lee",
    "State":"Florida",
    "zip":"33919"
    }
  },
  {
    "type": "Feature",
    "geometry": {
       "type": "Point",
       "coordinates":  [ -71.1299,42.3629 ]
    },
    "properties": {
    "FMID":1002683,
    "MarketName":"Allston Farmers' Market",
    "Website":"http://www.dining.harvard.edu/flp/ag_market.html",
    "street":"175 North Harvard Street",
    "city":"Allston",
    "County":"Middlesex",
    "State":"Massachusetts",
    "zip":"2134"
    }
  },
  {
    "type": "Feature",
    "geometry": {
       "type": "Point",
       "coordinates":  [ -71.1378418,42.353384 ]
    },
    "properties": {
    "FMID":1005134,
    "MarketName":"Allston Village Farmers Market",
    "Website":"http://www.allstonbrightoncdc.org/",
    "street":"500 Cambridge St.",
    "city":"Boston",
    "County":"Suffolk",
    "State":"Massachusetts",
    "zip":"2134"
    }
  },
  {
    "type": "Feature",
    "geometry": {
       "type": "Point",
       "coordinates":  [ -99.3625,40.1008 ]
    },
    "properties": {
    "FMID":1006816,
    "MarketName":"Alma Farmers Market",
    "Website":"",
    "street":"City Auditorium on Main Street, Downtown",
    "city":"Alma",
    "County":"Harlan",
    "State":"Nebraska",
    "zip":"68920"
    }
  },
  {
    "type": "Feature",
    "geometry": {
       "type": "Point",
       "coordinates":  [ -84.656984,43.3802699 ]
    },
    "properties": {
    "FMID":1002250,
    "MarketName":"Alma Farmers' Market",
    "Website":"",
    "street":"Pine & Downie Streets",
    "city":"Alma",
    "County":"Gratiot",
    "State":"Michigan",
    "zip":"48801"
    }
  },
  {
    "type": "Feature",
    "geometry": {
       "type": "Point",
       "coordinates":  [ -83.0475,42.9216 ]
    },
    "properties": {
    "FMID":1007836,
    "MarketName":"Almont Farmers' Market",
    "Website":"http://www.almontfarmersmarket.com",
    "street":"Van Dyke at School Street (northwest corner)",
    "city":"Almont",
    "County":"Lapeer County",
    "State":"Michigan",
    "zip":""
    }
  },
  {
    "type": "Feature",
    "geometry": {
       "type": "Point",
       "coordinates":  [ -122.87,45.4941 ]
    },
    "properties": {
    "FMID":1006235,
    "MarketName":"Aloha Farmers Market",
    "Website":"http://www.alohafarmersmarket.com",
    "street":"18631 SW Tualatin Valley Hw",
    "city":"Aloha",
    "County":"Washington",
    "State":"Oregon",
    "zip":"97007"
    }
  },
  {
    "type": "Feature",
    "geometry": {
       "type": "Point",
       "coordinates":  [ -83.430998,45.061878 ]
    },
    "properties": {
    "FMID":1010476,
    "MarketName":"Alpena Farmers' Market",
    "Website":"http://alpenafarmersmarket.org",
    "street":"208 N 1st Ave.",
    "city":"Alpena ",
    "County":"Alpena",
    "State":"Michigan",
    "zip":"49707"
    }
  },
  {
    "type": "Feature",
    "geometry": {
       "type": "Point",
       "coordinates":  [ -115.998,44.4251 ]
    },
    "properties": {
    "FMID":1005447,
    "MarketName":"Alpha Nursery Farmers' Market",
    "Website":"http://www.alpha-nursery.com",
    "street":"12 Alpha Lane,",
    "city":"Cascade",
    "County":"Valley",
    "State":"Idaho",
    "zip":"83611"
    }
  },
  {
    "type": "Feature",
    "geometry": {
       "type": "Point",
       "coordinates":  [ -87.727804,41.664913 ]
    },
    "properties": {
    "FMID":1009792,
    "MarketName":"Alsip Farmers Market",
    "Website":"http://www.alsipparks.org",
    "street":"12521 S. Kostner Avenue",
    "city":"Alsip",
    "County":"Cook",
    "State":"Illinois",
    "zip":"60803"
    }
  },
  {
    "type": "Feature",
    "geometry": {
       "type": "Point",
       "coordinates":  [ -118.1581301,34.2003788 ]
    },
    "properties": {
    "FMID":1009998,
    "MarketName":"Altadena Farmers' Market",
    "Website":"http://www.altadenafarmersmarket.com",
    "street":"600 W. Palm Street",
    "city":"Altadena",
    "County":"Los Angeles",
    "State":"California",
    "zip":"91001"
    }
  },
  {
    "type": "Feature",
    "geometry": {
       "type": "Point",
       "coordinates":  [ -74.0325,42.7013 ]
    },
    "properties": {
    "FMID":1004383,
    "MarketName":"Altamont Farmer's Market",
    "Website":"",
    "street":"Main Street & Maple Avenue",
    "city":"Altamont",
    "County":"Albany",
    "State":"New York",
    "zip":"12009"
    }
  },
  {
    "type": "Feature",
    "geometry": {
       "type": "Point",
       "coordinates":  [ -79.2838,37.1185 ]
    },
    "properties": {
    "FMID":1000357,
    "MarketName":"Altavista Farmers Market",
    "Website":"http://www.ci.altavista.va.us",
    "street":"Trade Lot",
    "city":"Altavista",
    "County":"Campbell",
    "State":"Virginia",
    "zip":"24517"
    }
  },
  {
    "type": "Feature",
    "geometry": {
       "type": "Point",
       "coordinates":  [ -90.1780932,38.8887926 ]
    },
    "properties": {
    "FMID":1006749,
    "MarketName":"Alton Farmers' and Artisans' Market",
    "Website":"http://www.DowntownAlton.com",
    "street":"551 Landmarks Blvd.",
    "city":"Alton",
    "County":"Madison",
    "State":"Illinois",
    "zip":"62002"
    }
  },
  {
    "type": "Feature",
    "geometry": {
       "type": "Point",
       "coordinates":  [ -78.2462,40.6787 ]
    },
    "properties": {
    "FMID":1004154,
    "MarketName":"Altoona Farmers Market",
    "Website":"",
    "street":"Heritage Plaza",
    "city":"Altoona",
    "County":"Blair",
    "State":"Pennsylvania",
    "zip":"16601"
    }
  },
  {
    "type": "Feature",
    "geometry": {
       "type": "Point",
       "coordinates":  [ -99.3336,34.6491 ]
    },
    "properties": {
    "FMID":1001100,
    "MarketName":"Altus Farmers Market",
    "Website":"",
    "street":"1116 North Main ST",
    "city":"Altus",
    "County":"Jackson",
    "State":"Oklahoma",
    "zip":"73521"
    }
  },
  {
    "type": "Feature",
    "geometry": {
       "type": "Point",
       "coordinates":  [ -121.833288,37.36777 ]
    },
    "properties": {
    "FMID":1011421,
    "MarketName":"Alum Rock Village Farmers' Market",
    "Website":"http://www.pcfma.org",
    "street":"57 North White Road",
    "city":"San Jose",
    "County":"Santa Clara",
    "State":"California",
    "zip":""
    }
  },
  {
    "type": "Feature",
    "geometry": {
       "type": "Point",
       "coordinates":  [ -98.6602,36.8083 ]
    },
    "properties": {
    "FMID":1001733,
    "MarketName":"Alva Farmers Market",
    "Website":"",
    "street":"102 North 2d",
    "city":"Alva",
    "County":"Woods",
    "State":"Oklahoma",
    "zip":"73717"
    }
  },
  {
    "type": "Feature",
    "geometry": {
       "type": "Point",
       "coordinates":  [ -120.7741018,38.3488023 ]
    },
    "properties": {
    "FMID":1005644,
    "MarketName":"Amador Farmers' Market-- Jackson",
    "Website":"http://www.amadorfarmersmarket.com",
    "street":"Jackson Library/ True Value",
    "city":"Jackson",
    "County":"Amador",
    "State":"California",
    "zip":"95642"
    }
  },
  {
    "type": "Feature",
    "geometry": {
       "type": "Point",
       "coordinates":  [ -120.7741018,38.3488023 ]
    },
    "properties": {
    "FMID":1005645,
    "MarketName":"Amador Farmers' Market-- Pine Grove",
    "Website":"http://www.amadorfarmersmarket.com",
    "street":"Hwy 88 at Irishtown Rd.",
    "city":"Pine Grove",
    "County":"Amador",
    "State":"California",
    "zip":"95665"
    }
  },
  {
    "type": "Feature",
    "geometry": {
       "type": "Point",
       "coordinates":  [ -120.7741018,38.3488023 ]
    },
    "properties": {
    "FMID":1005646,
    "MarketName":"Amador Farmers' Market-- Sutter Creek",
    "Website":"http://www.amadorfarmersmarket.com",
    "street":"Eureka St. & Highway 49",
    "city":"Sutter Creek",
    "County":"Amador",
    "State":"California",
    "zip":"95685"
    }
  },
  {
    "type": "Feature",
    "geometry": {
       "type": "Point",
       "coordinates":  [ -80.225,40.5819 ]
    },
    "properties": {
    "FMID":1001826,
    "MarketName":"Ambridge Farmers Market",
    "Website":"",
    "street":"St. Mary's Church Parking Lot",
    "city":"Ambridge",
    "County":"Beaver",
    "State":"Pennsylvania",
    "zip":"15003"
    }
  },
  {
    "type": "Feature",
    "geometry": {
       "type": "Point",
       "coordinates":  [ -77.9805478,37.3426037 ]
    },
    "properties": {
    "FMID":1008321,
    "MarketName":"Amelia Barter Town Farmers Market",
    "Website":"http://www.Ameliamarket.org",
    "street":"Farmers Market at the Fairgrounds",
    "city":"Amelia Court House ",
    "County":"Amelia",
    "State":"Virginia",
    "zip":"23002"
    }
  },
  {
    "type": "Feature",
    "geometry": {
       "type": "Point",
       "coordinates":  [ -80.269369,25.882469 ]
    },
    "properties": {
    "FMID":1010996,
    "MarketName":"Amelia Earhart Farmers Market",
    "Website":"http://urbanoasisproject.org",
    "street":" 401 East 65th Street",
    "city":"Hialeah ",
    "County":"Miami-Dade",
    "State":"Florida",
    "zip":"33013"
    }
  },
  {
    "type": "Feature",
    "geometry": {
       "type": "Point",
       "coordinates":  [ -81.454531,30.579786 ]
    },
    "properties": {
    "FMID":1008399,
    "MarketName":"Amelia Farmers Market",
    "Website":"http://www.ameliafarmersmarket.com",
    "street":"6800 First Coast Hwy",
    "city":"Amelia Island",
    "County":"Nassau",
    "State":"Florida",
    "zip":"32034"
    }
  },
  {
    "type": "Feature",
    "geometry": {
       "type": "Point",
       "coordinates":  [ -73.5549,41.8513 ]
    },
    "properties": {
    "FMID":1006373,
    "MarketName":"Amenia Farmers Market",
    "Website":"",
    "street":"4988 Route 22",
    "city":"",
    "County":"Dutchess",
    "State":"New York",
    "zip":""
    }
  },
  {
    "type": "Feature",
    "geometry": {
       "type": "Point",
       "coordinates":  [ -120.173,40.5432 ]
    },
    "properties": {
    "FMID":1002214,
    "MarketName":"American Falls Farmers Market",
    "Website":"",
    "street":"City Park on Idaho St.",
    "city":"American Falls",
    "County":"",
    "State":"Idaho",
    "zip":"83211"
    }
  },
  {
    "type": "Feature",
    "geometry": {
       "type": "Point",
       "coordinates":  [ -108.564,39.0682 ]
    },
    "properties": {
    "FMID":1001367,
    "MarketName":"American National Bank Downtown Farmers Market Festival",
    "Website":"",
    "street":"5th and Rood Avenue",
    "city":"Grand Junction",
    "County":"",
    "State":"Colorado",
    "zip":""
    }
  },
  {
    "type": "Feature",
    "geometry": {
       "type": "Point",
       "coordinates":  [ -93.2862,30.8469 ]
    },
    "properties": {
    "FMID":1005946,
    "MarketName":"Amerisafe Downtown Pavilion & Farmers Market",
    "Website":"http://www.cityofderidder.org",
    "street":"120 North Washington Av",
    "city":"DeRidder",
    "County":"",
    "State":"Louisiana",
    "zip":"70634"
    }
  },
  {
    "type": "Feature",
    "geometry": {
       "type": "Point",
       "coordinates":  [ -92.3624,45.3072 ]
    },
    "properties": {
    "FMID":1005188,
    "MarketName":"Amery Farmers Market",
    "Website":"",
    "street":"Sooline Park",
    "city":"Amery",
    "County":"Polk",
    "State":"Wisconsin",
    "zip":"54001"
    }
  },
  {
    "type": "Feature",
    "geometry": {
       "type": "Point",
       "coordinates":  [ -93.613343,42.028185 ]
    },
    "properties": {
    "FMID":1011171,
    "MarketName":"Ames Main Street Farmers' Market",
    "Website":"http://www.amesmainsteetfarmersmarket.com",
    "street":"300 & 400 Blocks of  Main Street",
    "city":"Ames, IA",
    "County":"Story",
    "State":"Iowa",
    "zip":"50010"
    }
  },
  {
    "type": "Feature",
    "geometry": {
       "type": "Point",
       "coordinates":  [ -71.6256,42.8646 ]
    },
    "properties": {
    "FMID":1001273,
    "MarketName":"Amherst Farmers Market",
    "Website":"",
    "street":"Church Street",
    "city":"Amherst",
    "County":"Hillsborough",
    "State":"New Hampshire",
    "zip":"3031"
    }
  },
  {
    "type": "Feature",
    "geometry": {
       "type": "Point",
       "coordinates":  [ -72.519422,42.374858 ]
    },
    "properties": {
    "FMID":1000284,
    "MarketName":"Amherst Farmers' Market",
    "Website":"http://www.AmherstFarmersMarket.com",
    "street":"Spring Street Parking Lot",
    "city":"Amherst Center",
    "County":"Hampshire",
    "State":"Massachusetts",
    "zip":"1002"
    }
  },
  {
    "type": "Feature",
    "geometry": {
       "type": "Point",
       "coordinates":  [ -72.519778,42.379974 ]
    },
    "properties": {
    "FMID":1006748,
    "MarketName":"Amherst Wednesday Market at Kendrick Park",
    "Website":"http://www.kendrickparkmarket.com",
    "street":"Kendrick Park Intersection of North and East Pleasant st.",
    "city":"Amherst",
    "County":"Hampshire",
    "State":"Massachusetts",
    "zip":"1004"
    }
  },
  {
    "type": "Feature",
    "geometry": {
       "type": "Point",
       "coordinates":  [ -72.511105,42.384866 ]
    },
    "properties": {
    "FMID":1009833,
    "MarketName":"Amherst Winter Farmers' Market",
    "Website":"http://www.amherstwintermarket.com",
    "street":"170 Chestnut Street",
    "city":"Amherst",
    "County":"Hampshire",
    "State":"Massachusetts",
    "zip":"1002"
    }
  },
  {
    "type": "Feature",
    "geometry": {
       "type": "Point",
       "coordinates":  [ -81.255883,38.583305 ]
    },
    "properties": {
    "FMID":1001135,
    "MarketName":"Amma Farmers Market",
    "Website":"",
    "street":"Amma Senior and Community Center",
    "city":"Amma",
    "County":"Roane",
    "State":"West Virginia",
    "zip":"25252"
    }
  },
  {
    "type": "Feature",
    "geometry": {
       "type": "Point",
       "coordinates":  [ -86.71695,36.258501 ]
    },
    "properties": {
    "FMID":1010105,
    "MarketName":"Amqui Station Farmers Market",
    "Website":"http://www.amquistation.org/farmers-market",
    "street":"301 B Madison Street",
    "city":"Madison",
    "County":"Davidson",
    "State":"Tennessee",
    "zip":"37115"
    }
  },
  {
    "type": "Feature",
    "geometry": {
       "type": "Point",
       "coordinates":  [ -74.1849829,42.939594 ]
    },
    "properties": {
    "FMID":1011670,
    "MarketName":"Amsterdam Saturday Farmers/Crafters Market",
    "Website":"",
    "street":"100 Church Street",
    "city":"Amsterdam ",
    "County":"Montgomery",
    "State":"New York",
    "zip":"12010"
    }
  },
  {
    "type": "Feature",
    "geometry": {
       "type": "Point",
       "coordinates":  [ -113.139151,46.099065 ]
    },
    "properties": {
    "FMID":1010374,
    "MarketName":"Anaconda Community Market",
    "Website":"http://www.anacondacommunityfoundation.org",
    "street":"401 E Commercial",
    "city":"Anaconda-Deer Lodge County",
    "County":"Deer Lodge",
    "State":"Montana",
    "zip":"59711"
    }
  },
  {
    "type": "Feature",
    "geometry": {
       "type": "Point",
       "coordinates":  [ -122.609181,48.516974 ]
    },
    "properties": {
    "FMID":1005944,
    "MarketName":"Anacortes Farmers Market",
    "Website":"http://www.anacortesfarmersmarket.org",
    "street":"611 R Avenue",
    "city":"Anacortes",
    "County":"Skagit",
    "State":"Washington",
    "zip":"98221"
    }
  },
  {
    "type": "Feature",
    "geometry": {
       "type": "Point",
       "coordinates":  [ -100.24061,47.880722 ]
    },
    "properties": {
    "FMID":1001105,
    "MarketName":"Anamoose Market in the Park",
    "Website":"",
    "street":"Main Street",
    "city":"Anamoose",
    "County":"McHenry",
    "State":"North Dakota",
    "zip":"58710"
    }
  },
  {
    "type": "Feature",
    "geometry": {
       "type": "Point",
       "coordinates":  [ -91.2795,42.1083 ]
    },
    "properties": {
    "FMID":1003055,
    "MarketName":"Anamosa Farmers Market",
    "Website":"",
    "street":"Corner of Scott and Main Streets",
    "city":"Anamosa",
    "County":"Jones",
    "State":"Iowa",
    "zip":"52205"
    }
  },
  {
    "type": "Feature",
    "geometry": {
       "type": "Point",
       "coordinates":  [ -149.880724,61.208059 ]
    },
    "properties": {
    "FMID":1007258,
    "MarketName":"Anchorage Farmers Market",
    "Website":"http://www.anchoragefarmersmarket.org",
    "street":"1420 Cordova Street",
    "city":"Anchorage",
    "County":"Anchorage",
    "State":"Alaska",
    "zip":"99645"
    }
  },
  {
    "type": "Feature",
    "geometry": {
       "type": "Point",
       "coordinates":  [ -149.891,61.2195 ]
    },
    "properties": {
    "FMID":1002640,
    "MarketName":"Anchorage Market & Festival",
    "Website":"http://www.anchoragemarkets.com",
    "street":"3rd Avenue and E Street",
    "city":"Anchorage",
    "County":"Anchorage",
    "State":"Alaska",
    "zip":"99501"
    }
  },
  {
    "type": "Feature",
    "geometry": {
       "type": "Point",
       "coordinates":  [ -85.67921,40.104518 ]
    },
    "properties": {
    "FMID":1010883,
    "MarketName":"Anderson City Market ",
    "Website":"http://www.andersoncitymarket.org/",
    "street":"11th and Meridian ",
    "city":"Anderson ",
    "County":"Madison",
    "State":"Indiana",
    "zip":"46016"
    }
  },
  {
    "type": "Feature",
    "geometry": {
       "type": "Point",
       "coordinates":  [ -82.652151,34.506798 ]
    },
    "properties": {
    "FMID":1008251,
    "MarketName":"Anderson County Farmers Market",
    "Website":"http://andersoncountysc.org/web/Farmers_00.asp",
    "street":"402 N. Murray Ave.",
    "city":"Anderson",
    "County":"Anderson",
    "State":"South Carolina",
    "zip":"29621"
    }
  },
  {
    "type": "Feature",
    "geometry": {
       "type": "Point",
       "coordinates":  [ -84.918057,38.074839 ]
    },
    "properties": {
    "FMID":1008727,
    "MarketName":"Anderson County Farmers Market ",
    "Website":"",
    "street":"1505 Bypass US 127 North",
    "city":"Lawrenceburg ",
    "County":"Anderson",
    "State":"Kentucky",
    "zip":"40342"
    }
  },
  {
    "type": "Feature",
    "geometry": {
       "type": "Point",
       "coordinates":  [ -83.8824,39.7668 ]
    },
    "properties": {
    "FMID":1000971,
    "MarketName":"Anderson Farm Market",
    "Website":"",
    "street":"1240 Clifton Rd",
    "city":"Xenia",
    "County":"Greene",
    "State":"Ohio",
    "zip":"45385"
    }
  },
  {
    "type": "Feature",
    "geometry": {
       "type": "Point",
       "coordinates":  [ -84.350563,39.078533 ]
    },
    "properties": {
    "FMID":1004991,
    "MarketName":"Anderson Farmers' Market",
    "Website":"http://www.andersonfarmersmarket.org",
    "street":"7832 Five Mile Road",
    "city":"Cincinnati",
    "County":"Hamilton",
    "State":"Ohio",
    "zip":"45230"
    }
  },
  {
    "type": "Feature",
    "geometry": {
       "type": "Point",
       "coordinates":  [ -122.408,40.4487 ]
    },
    "properties": {
    "FMID":1002089,
    "MarketName":"Anderson Happy Valley Farmers Market",
    "Website":"",
    "street":"Happy Valley Rd.",
    "city":"Anderson",
    "County":"Shasta",
    "State":"California",
    "zip":"96007"
    }
  },
  {
    "type": "Feature",
    "geometry": {
       "type": "Point",
       "coordinates":  [ -87.6687,41.978 ]
    },
    "properties": {
    "FMID":1003516,
    "MarketName":"Andersonville Farmers Market",
    "Website":"http://www.andersonville.org",
    "street":"1500 W. Berwyn Ave.",
    "city":"Chicago",
    "County":"Cook",
    "State":"Illinois",
    "zip":"60640"
    }
  },
  {
    "type": "Feature",
    "geometry": {
       "type": "Point",
       "coordinates":  [ -93.3573105,45.2192618 ]
    },
    "properties": {
    "FMID":1007647,
    "MarketName":"Andover Farmers Market",
    "Website":"",
    "street":"13655 Round Lake Blvd. NW",
    "city":"Andover",
    "County":"Anoka",
    "State":"Minnesota",
    "zip":""
    }
  },
  {
    "type": "Feature",
    "geometry": {
       "type": "Point",
       "coordinates":  [ -71.138653,42.653487 ]
    },
    "properties": {
    "FMID":1008256,
    "MarketName":"Andover Farmers Market",
    "Website":"http://andoverhistorical.org/market",
    "street":"97 Main Street",
    "city":"Andover",
    "County":"Essex",
    "State":"Massachusetts",
    "zip":"MA"
    }
  },
  {
    "type": "Feature",
    "geometry": {
       "type": "Point",
       "coordinates":  [ -83.8232,35.2027 ]
    },
    "properties": {
    "FMID":1000287,
    "MarketName":"Andrews Farmers Market",
    "Website":"http://www.andrewsfarmersmarket.com",
    "street":"First Street",
    "city":"Andrews",
    "County":"Cherokee",
    "State":"North Carolina",
    "zip":""
    }
  },
  {
    "type": "Feature",
    "geometry": {
       "type": "Point",
       "coordinates":  [ -78.015956,42.306061 ]
    },
    "properties": {
    "FMID":1006378,
    "MarketName":"Angelica Farmers' Market",
    "Website":"http://www.localharvest.org/angelica-farmers-market-M23451",
    "street":"Park Circle, Main Street",
    "city":"Angelica",
    "County":"Allegany",
    "State":"New York",
    "zip":"14709"
    }
  },
  {
    "type": "Feature",
    "geometry": {
       "type": "Point",
       "coordinates":  [ -94.697749,31.321061 ]
    },
    "properties": {
    "FMID":1010280,
    "MarketName":"Angelina County Farmers Market",
    "Website":"http://visitlufkin.com/ShopDine/FarmersMarket/",
    "street":"2107 S Medford Dr ",
    "city":"Lufkin ",
    "County":"Angelina",
    "State":"Texas",
    "zip":"75901"
    }
  },
  {
    "type": "Feature",
    "geometry": {
       "type": "Point",
       "coordinates":  [ -120.5427,38.072158 ]
    },
    "properties": {
    "FMID":1006268,
    "MarketName":"Angels Camp Farmers Market-Fresh Fridays",
    "Website":"http://www.angelscampbusiness.com/events/fresh-fridays/",
    "street":"Utica Park, Utica Lane",
    "city":"Angels Camp",
    "County":"Calaveras",
    "State":"California",
    "zip":"95222"
    }
  },
  {
    "type": "Feature",
    "geometry": {
       "type": "Point",
       "coordinates":  [ -83.746653,42.283836 ]
    },
    "properties": {
    "FMID":1010223,
    "MarketName":"Ann Arbor Farmers Market",
    "Website":"http://www.a2gov.org/market",
    "street":"315 Detroit Street",
    "city":"Ann Arbor",
    "County":"Washtenaw",
    "State":"Michigan",
    "zip":"48104"
    }
  },
  {
    "type": "Feature",
    "geometry": {
       "type": "Point",
       "coordinates":  [ -73.716466,40.708292 ]
    },
    "properties": {
    "FMID":1010380,
    "MarketName":"Anna House Farm Stand",
    "Website":"http://www.childcarenassau.org",
    "street":"2150 Hempstead Tpke",
    "city":"Elmont ",
    "County":"Nassau",
    "State":"New York",
    "zip":"11003"
    }
  },
  {
    "type": "Feature",
    "geometry": {
       "type": "Point",
       "coordinates":  [ -89.2093,37.4604 ]
    },
    "properties": {
    "FMID":1001782,
    "MarketName":"Anna/Union County Farmers Market",
    "Website":"",
    "street":"1150 E Vienna St.",
    "city":"Anna",
    "County":"Union",
    "State":"Illinois",
    "zip":"62906"
    }
  },
  {
    "type": "Feature",
    "geometry": {
       "type": "Point",
       "coordinates":  [ -77.174332,38.83484 ]
    },
    "properties": {
    "FMID":1009619,
    "MarketName":"Annandale Farmers Market",
    "Website":"https://www.fairfaxcounty.gov/parks/farmersmarkets",
    "street":"6621 Columbia Pike",
    "city":"Annandale",
    "County":"Fairfax",
    "State":"Virginia",
    "zip":"22003"
    }
  },
  {
    "type": "Feature",
    "geometry": {
       "type": "Point",
       "coordinates":  [ -76.48621,38.97658 ]
    },
    "properties": {
    "FMID":1006800,
    "MarketName":"Annapolis FRESHFARM Market",
    "Website":"http://www.freshfarmmarkets.org/markets/annapolis.html",
    "street":"Compromise Street",
    "city":"Annapolis",
    "County":"Anne Arundel",
    "State":"Maryland",
    "zip":"21401"
    }
  },
  {
    "type": "Feature",
    "geometry": {
       "type": "Point",
       "coordinates":  [ -76.5556,38.9763 ]
    },
    "properties": {
    "FMID":1001142,
    "MarketName":"Anne Arundel County (Riva)",
    "Website":"http://www.aacofarmersmarket.com/",
    "street":"Riva Road & Harry S Truman pkwy",
    "city":"Annapolis",
    "County":"Anne Arundel",
    "State":"Maryland",
    "zip":"21401"
    }
  },
  {
    "type": "Feature",
    "geometry": {
       "type": "Point",
       "coordinates":  [ -64.8799,17.7099 ]
    },
    "properties": {
    "FMID":1004881,
    "MarketName":"Anne Heyliger Vegetable Market",
    "Website":"",
    "street":"Queen Cross Street",
    "city":"Saint Croix",
    "County":"Frederiksted",
    "State":"Virgin Islands",
    "zip":""
    }
  },
  {
    "type": "Feature",
    "geometry": {
       "type": "Point",
       "coordinates":  [ -85.832,33.6625 ]
    },
    "properties": {
    "FMID":1006274,
    "MarketName":"Anniston Downtown Farmers Market",
    "Website":"http://www.spiritofanniston.org",
    "street":"14th & Gurnee",
    "city":"Anniston",
    "County":"Calhoun",
    "State":"Alabama",
    "zip":"36201"
    }
  },
  {
    "type": "Feature",
    "geometry": {
       "type": "Point",
       "coordinates":  [ -93.384261,45.197726 ]
    },
    "properties": {
    "FMID":1001465,
    "MarketName":"Anoka County Growers Association/ Anoka Market",
    "Website":"",
    "street":"420 E. Main Street",
    "city":"Anoka",
    "County":"Anoka",
    "State":"Minnesota",
    "zip":"55303"
    }
  },
  {
    "type": "Feature",
    "geometry": {
       "type": "Point",
       "coordinates":  [ -93.2525239,45.13304 ]
    },
    "properties": {
    "FMID":1007646,
    "MarketName":"Anoka County Growers/ St. Timothy Church Blaine",
    "Website":"",
    "street":"707 89th Ave. NE",
    "city":"Blaine",
    "County":"Anoka",
    "State":"Minnesota",
    "zip":""
    }
  },
  {
    "type": "Feature",
    "geometry": {
       "type": "Point",
       "coordinates":  [ -93.2459,45.0489 ]
    },
    "properties": {
    "FMID":1007636,
    "MarketName":"Anoka County Growers/Immaculate Conception Church",
    "Website":"",
    "street":"40th and Jackson Street",
    "city":"Columbia Heights",
    "County":"Anoka",
    "State":"Minnesota",
    "zip":""
    }
  },
  {
    "type": "Feature",
    "geometry": {
       "type": "Point",
       "coordinates":  [ -75.641899,40.079648 ]
    },
    "properties": {
    "FMID":1000306,
    "MarketName":"Anselma Farmers' and Artisans' Market",
    "Website":"",
    "street":"1730 Conestoga Road/Rt 401",
    "city":"Chester Springs",
    "County":"Chester",
    "State":"Pennsylvania",
    "zip":"19425"
    }
  },
  {
    "type": "Feature",
    "geometry": {
       "type": "Point",
       "coordinates":  [ -80.052567,34.940829 ]
    },
    "properties": {
    "FMID":1000405,
    "MarketName":"Anson County Farmers Market",
    "Website":"",
    "street":"1736 Hwy 52 South",
    "city":"Wadesboro",
    "County":"Anson",
    "State":"North Carolina",
    "zip":"28170"
    }
  },
  {
    "type": "Feature",
    "geometry": {
       "type": "Point",
       "coordinates":  [ -118.1662288,34.6470421 ]
    },
    "properties": {
    "FMID":1011248,
    "MarketName":"Antelope Valley Winery Farmer's Market ",
    "Website":"http://www.avwinery.com",
    "street":"42041 20th St. West",
    "city":"Lancaster",
    "County":"Los Angeles",
    "State":"California",
    "zip":"93534"
    }
  },
  {
    "type": "Feature",
    "geometry": {
       "type": "Point",
       "coordinates":  [ -112.12314,33.849663 ]
    },
    "properties": {
    "FMID":1008378,
    "MarketName":"Anthem Community Farmers Market",
    "Website":"http://www.Arizonafarmersmarkets.com",
    "street":"41703 N Gavilan Peak Parkway",
    "city":"Anthem ",
    "County":"Maricopa",
    "State":"Arizona",
    "zip":"85086"
    }
  },
  {
    "type": "Feature",
    "geometry": {
       "type": "Point",
       "coordinates":  [ -98.038,37.1521 ]
    },
    "properties": {
    "FMID":1000434,
    "MarketName":"Anthony Farmers Market",
    "Website":"",
    "street":"Corner of West Main and Lawrence",
    "city":"Anthony",
    "County":"Harper",
    "State":"Kansas",
    "zip":"67003"
    }
  },
  {
    "type": "Feature",
    "geometry": {
       "type": "Point",
       "coordinates":  [ -89.15228,45.14188 ]
    },
    "properties": {
    "FMID":1004557,
    "MarketName":"Antigo Farmers Market, Inc.",
    "Website":"http://www.antigomarket.com",
    "street":"700 Superior St",
    "city":"Antigo",
    "County":"Langlade",
    "State":"Wisconsin",
    "zip":"54409"
    }
  },
  {
    "type": "Feature",
    "geometry": {
       "type": "Point",
       "coordinates":  [ -78.849899,35.7320152 ]
    },
    "properties": {
    "FMID":1011109,
    "MarketName":"Apex Farmers Market",
    "Website":"http://www.apexfarmersmarket.com",
    "street":"220 N. Salem St. ",
    "city":"Apex ",
    "County":"Wake",
    "State":"North Carolina",
    "zip":"27502"
    }
  },
  {
    "type": "Feature",
    "geometry": {
       "type": "Point",
       "coordinates":  [ -83.194852,35.96175 ]
    },
    "properties": {
    "FMID":1011158,
    "MarketName":"Appalachian (Newport) Farmers Market, Cocke County TN",
    "Website":"",
    "street":"115 Mulberry Street",
    "city":"Newport",
    "County":"Cocke",
    "State":"Tennessee",
    "zip":"37821"
    }
  },
  {
    "type": "Feature",
    "geometry": {
       "type": "Point",
       "coordinates":  [ -82.4819,36.4183 ]
    },
    "properties": {
    "FMID":1005207,
    "MarketName":"Appalachian Farmers' Market",
    "Website":"http://www.appfarmersmarket.com",
    "street":"Intersection of Fair Street and Lakeview Drive",
    "city":"Gray",
    "County":"Washington",
    "State":"Tennessee",
    "zip":"37615"
    }
  },
  {
    "type": "Feature",
    "geometry": {
       "type": "Point",
       "coordinates":  [ -101.8364,33.57785 ]
    },
    "properties": {
    "FMID":1000683,
    "MarketName":"Apple Country Farmers Market",
    "Website":"http://www.applecountryorchards.com",
    "street":"19th and Ave A",
    "city":"Lubbock",
    "County":"Lubbock",
    "State":"Texas",
    "zip":"79401"
    }
  },
  {
    "type": "Feature",
    "geometry": {
       "type": "Point",
       "coordinates":  [ -101.611862,33.666336 ]
    },
    "properties": {
    "FMID":1000685,
    "MarketName":"Apple Country Farmers Market",
    "Website":"http://www.applecountryorchards.com",
    "street":"12206 E. Hwy 62",
    "city":"Idalou",
    "County":"Lubbock",
    "State":"Texas",
    "zip":"79329"
    }
  },
  {
    "type": "Feature",
    "geometry": {
       "type": "Point",
       "coordinates":  [ -93.2072,44.7309 ]
    },
    "properties": {
    "FMID":1006889,
    "MarketName":"Apple Valley Farmers' Market",
    "Website":"",
    "street":"corner of Cty Rd 42 & Galaxy near City Hall",
    "city":"Apple Valley",
    "County":"Dakota County",
    "State":"Minnesota",
    "zip":""
    }
  },
  {
    "type": "Feature",
    "geometry": {
       "type": "Point",
       "coordinates":  [ -88.40703,44.26201 ]
    },
    "properties": {
    "FMID":1000431,
    "MarketName":"Appleton Downtown Farm Market",
    "Website":"http://www.appletondowntown.org",
    "street":"100 College Avenue",
    "city":"Appleton",
    "County":"Outagamie",
    "State":"Wisconsin",
    "zip":"54911"
    }
  },
  {
    "type": "Feature",
    "geometry": {
       "type": "Point",
       "coordinates":  [ -121.9270394,36.9872756 ]
    },
    "properties": {
    "FMID":1009687,
    "MarketName":"Aptos Farmers Market at Cabrillo College",
    "Website":"http://www.montereybayfarmers.org",
    "street":"6500 Soquel Drive",
    "city":"Aptos",
    "County":"Santa Cruz",
    "State":"California",
    "zip":"95003"
    }
  },
  {
    "type": "Feature",
    "geometry": {
       "type": "Point",
       "coordinates":  [ -71.271936,41.529191 ]
    },
    "properties": {
    "FMID":1001738,
    "MarketName":"Aquidneck Growers' Markets",
    "Website":"http://www.aquidneckgrowersmarket.org",
    "street":"909 East Main Road",
    "city":"Middletown",
    "County":"Newport",
    "State":"Rhode Island",
    "zip":"2840"
    }
  },
  {
    "type": "Feature",
    "geometry": {
       "type": "Point",
       "coordinates":  [ -71.3048066,41.4833807 ]
    },
    "properties": {
    "FMID":1010986,
    "MarketName":"Aquidneck Growers' Markets in Newport",
    "Website":"http://www.aquidneckgrowersmarket.org",
    "street":"Memorial Boulevard and Edgar Street",
    "city":"Newport",
    "County":"Newport",
    "State":"Rhode Island",
    "zip":"2840"
    }
  },
  {
    "type": "Feature",
    "geometry": {
       "type": "Point",
       "coordinates":  [ -86.495876,34.320401 ]
    },
    "properties": {
    "FMID":1004566,
    "MarketName":"ARAB FARMERS MARKET",
    "Website":"",
    "street":"307 NORTH MAIN STREET",
    "city":"ARAB",
    "County":"Marshall",
    "State":"Alabama",
    "zip":"36016"
    }
  },
  {
    "type": "Feature",
    "geometry": {
       "type": "Point",
       "coordinates":  [ -122.066082,38.953013 ]
    },
    "properties": {
    "FMID":1008482,
    "MarketName":"Arbuckle Certified Farmers Market",
    "Website":"http://arbucklerevitalization.org/farmersmarket.html",
    "street":"6613 Harrington Avenue",
    "city":"Arbuckle ",
    "County":"Amador",
    "State":"California",
    "zip":""
    }
  },
  {
    "type": "Feature",
    "geometry": {
       "type": "Point",
       "coordinates":  [ -78.4308288,42.5337764 ]
    },
    "properties": {
    "FMID":1001764,
    "MarketName":"Arcade Farmers' Market",
    "Website":"",
    "street":"400 W. Main St.",
    "city":"Arcade",
    "County":"Wyoming",
    "State":"New York",
    "zip":"14009"
    }
  },
  {
    "type": "Feature",
    "geometry": {
       "type": "Point",
       "coordinates":  [ -90.6278618,37.5945109 ]
    },
    "properties": {
    "FMID":1000558,
    "MarketName":"Arcadia Valley Farmers' Market",
    "Website":"",
    "street":"250 South Main Street",
    "city":"Ironton",
    "County":"Iron",
    "State":"Missouri",
    "zip":"63650"
    }
  },
  {
    "type": "Feature",
    "geometry": {
       "type": "Point",
       "coordinates":  [ -124.086882,40.868397 ]
    },
    "properties": {
    "FMID":1002085,
    "MarketName":"Arcata Plaza Farmers' Market",
    "Website":"http://www.humfarm.org",
    "street":"9th and H Streets",
    "city":"Arcata",
    "County":"Humboldt",
    "State":"California",
    "zip":"95521"
    }
  },
  {
    "type": "Feature",
    "geometry": {
       "type": "Point",
       "coordinates":  [ -77.787516,38.850955 ]
    },
    "properties": {
    "FMID":1001628,
    "MarketName":"Archwood Green Barns Farmers' Market",
    "Website":"",
    "street":"Intersection of Rt. 245 & I-66, exit 31",
    "city":"The Plains",
    "County":"Fauquier",
    "State":"Virginia",
    "zip":"20198"
    }
  },
  {
    "type": "Feature",
    "geometry": {
       "type": "Point",
       "coordinates":  [ -97.4258,27.7763 ]
    },
    "properties": {
    "FMID":1007662,
    "MarketName":"Area Farmers Market",
    "Website":"http://www.brazosvalleyfarmersmarket.com",
    "street":"3102 Baldwin Street",
    "city":"Corpus Christi",
    "County":"Nueces",
    "State":"Texas",
    "zip":"78405"
    }
  },
  {
    "type": "Feature",
    "geometry": {
       "type": "Point",
       "coordinates":  [ -83.961296,43.983428 ]
    },
    "properties": {
    "FMID":1002798,
    "MarketName":"Arenac Conservation District Farmers Market",
    "Website":"http://www.arenacconservationdistrict.com",
    "street":"107 N Main Street",
    "city":"Standish",
    "County":"Arenac",
    "State":"Michigan",
    "zip":"48658"
    }
  },
  {
    "type": "Feature",
    "geometry": {
       "type": "Point",
       "coordinates":  [ -83.7521476,42.2789811 ]
    },
    "properties": {
    "FMID":1010882,
    "MarketName":"Argus Farm Stop",
    "Website":"http://www.argusfarmstop.com",
    "street":"325 W Liberty",
    "city":"Ann Arbor",
    "County":"Washtenaw",
    "State":"Michigan",
    "zip":"48103"
    }
  },
  {
    "type": "Feature",
    "geometry": {
       "type": "Point",
       "coordinates":  [ -111.319,31.591 ]
    },
    "properties": {
    "FMID":1007843,
    "MarketName":"Arivaca Market",
    "Website":"",
    "street":"Gadsen Coffee Co., 16800 Arivaca Rd.",
    "city":"Arivaca",
    "County":"Pima County",
    "State":"Arizona",
    "zip":""
    }
  },
  {
    "type": "Feature",
    "geometry": {
       "type": "Point",
       "coordinates":  [ -97.0386,37.0609 ]
    },
    "properties": {
    "FMID":1002314,
    "MarketName":"Ark City Farm & Art Market",
    "Website":"http://www.arkcity.org/CurrentEvents.asp?EID=1457",
    "street":"200 Blcok S. Summit",
    "city":"Arkansas City",
    "County":"Cowley",
    "State":"Kansas",
    "zip":"67005"
    }
  },
  {
    "type": "Feature",
    "geometry": {
       "type": "Point",
       "coordinates":  [ -91.5488,34.4851 ]
    },
    "properties": {
    "FMID":1005928,
    "MarketName":"Arkansas County/North Farmers Market",
    "Website":"",
    "street":"Main and Sixth",
    "city":"Stuttgart",
    "County":"Arkansas",
    "State":"Arkansas",
    "zip":"72160"
    }
  },
  {
    "type": "Feature",
    "geometry": {
       "type": "Point",
       "coordinates":  [ -91.3401,34.2823 ]
    },
    "properties": {
    "FMID":1005927,
    "MarketName":"Arkansas County/South Farmers Market",
    "Website":"",
    "street":"The Triangle",
    "city":"DeWitt",
    "County":"Arkansas",
    "State":"Arkansas",
    "zip":"72042"
    }
  },
  {
    "type": "Feature",
    "geometry": {
       "type": "Point",
       "coordinates":  [ -92.3709,34.7568 ]
    },
    "properties": {
    "FMID":1002621,
    "MarketName":"Arkansas Home Grown Market I",
    "Website":"",
    "street":"Corner of Cantrell and Pleasant Valley",
    "city":"Little Rock",
    "County":"Pulaski",
    "State":"Arkansas",
    "zip":"72206"
    }
  },
  {
    "type": "Feature",
    "geometry": {
       "type": "Point",
       "coordinates":  [ -92.2329,34.7955 ]
    },
    "properties": {
    "FMID":1002622,
    "MarketName":"Arkansas Home Grown Market II",
    "Website":"",
    "street":"Lakewood Village Mall",
    "city":"Little Rock",
    "County":"Pulaski",
    "State":"Arkansas",
    "zip":"72206"
    }
  },
  {
    "type": "Feature",
    "geometry": {
       "type": "Point",
       "coordinates":  [ -92.3452,34.7404 ]
    },
    "properties": {
    "FMID":1002620,
    "MarketName":"Arkansas Home Grown Market III",
    "Website":"",
    "street":"YMCA - 12th & Cleveland",
    "city":"Little Rock",
    "County":"Pulaski",
    "State":"Arkansas",
    "zip":"72206"
    }
  },
  {
    "type": "Feature",
    "geometry": {
       "type": "Point",
       "coordinates":  [ -92.269599,34.743076 ]
    },
    "properties": {
    "FMID":1001018,
    "MarketName":"Arkansas Local Food Network Online Farmers Market",
    "Website":"http://www.littlerock.locallygrown.net",
    "street":"509 Scott St.",
    "city":"Little Rock",
    "County":"Pulaski",
    "State":"Arkansas",
    "zip":"72201"
    }
  },
  {
    "type": "Feature",
    "geometry": {
       "type": "Point",
       "coordinates":  [ -85.2924,39.1313 ]
    },
    "properties": {
    "FMID":1002581,
    "MarketName":"Arlene Knudson",
    "Website":"",
    "street":"305 N. Buckeye Street",
    "city":"Osgood",
    "County":"Ripley",
    "State":"Indiana",
    "zip":"47037"
    }
  },
  {
    "type": "Feature",
    "geometry": {
       "type": "Point",
       "coordinates":  [ -122.1264564,48.1936753 ]
    },
    "properties": {
    "FMID":1002611,
    "MarketName":"Arlington Farmers Market",
    "Website":"http://www.Arlingtonfarmersmarket.blogspot.com",
    "street":"200 North Olympic",
    "city":"Arlington",
    "County":"Snohomish",
    "State":"Washington",
    "zip":"98223"
    }
  },
  {
    "type": "Feature",
    "geometry": {
       "type": "Point",
       "coordinates":  [ -73.901164,41.691447 ]
    },
    "properties": {
    "FMID":1008236,
    "MarketName":"Arlington Farmers Market",
    "Website":"http://www.arlingtonhasit.org",
    "street":"123 Raymond Avenue ",
    "city":"Poughkeepsie",
    "County":"Dutchess",
    "State":"New York",
    "zip":"12603"
    }
  },
  {
    "type": "Feature",
    "geometry": {
       "type": "Point",
       "coordinates":  [ -77.084394,38.889579 ]
    },
    "properties": {
    "FMID":1008330,
    "MarketName":"Arlington Farmers Market",
    "Website":"http://www.arlingtonparks.us/farmersmarket",
    "street":"1400 N. Courthouse Rd.",
    "city":"Arlington ",
    "County":"Arlington",
    "State":"Virginia",
    "zip":"22201"
    }
  },
  {
    "type": "Feature",
    "geometry": {
       "type": "Point",
       "coordinates":  [ -71.164738,42.427739 ]
    },
    "properties": {
    "FMID":1009968,
    "MarketName":"Arlington Farmers Market",
    "Website":"http://farmersmarketarlington.org",
    "street":"Russell Commons Parking Lot, Winslow St. at Mystic St",
    "city":"Arlington, Ma. ",
    "County":"Middlesex",
    "State":"Massachusetts",
    "zip":"2474"
    }
  },
  {
    "type": "Feature",
    "geometry": {
       "type": "Point",
       "coordinates":  [ -87.9808,42.086 ]
    },
    "properties": {
    "FMID":1003571,
    "MarketName":"Arlington Heights Farmers Market",
    "Website":"",
    "street":"N. Arlington Heights Rd. at E. Eastman St.",
    "city":"Arlington",
    "County":"Cook",
    "State":"Illinois",
    "zip":"60004"
    }
  },
  {
    "type": "Feature",
    "geometry": {
       "type": "Point",
       "coordinates":  [ -77.1121896,38.8562594 ]
    },
    "properties": {
    "FMID":1010945,
    "MarketName":"Arlington Mill Farmers Market",
    "Website":"http://www.columbiapike.org",
    "street":"Arlington Mill Community Center, 909 S. Dinwiddie Street",
    "city":"Arlington ",
    "County":"Arlington",
    "State":"Virginia",
    "zip":"22204"
    }
  },
  {
    "type": "Feature",
    "geometry": {
       "type": "Point",
       "coordinates":  [ -106.67716,35.052905 ]
    },
    "properties": {
    "FMID":1004802,
    "MarketName":"Armijo Village Growers' Market",
    "Website":"http://farmersmarketsnm.org/Shoppers/FindMarket/find.php",
    "street":"Isleta Blvd & Arenal Rd",
    "city":"Albuquerque",
    "County":"Bernalillo",
    "State":"New Mexico",
    "zip":""
    }
  },
  {
    "type": "Feature",
    "geometry": {
       "type": "Point",
       "coordinates":  [ -106.6776259,35.0526489 ]
    },
    "properties": {
    "FMID":1011122,
    "MarketName":"Armijo Village Growers' Market",
    "Website":"",
    "street":"1635 Islata Blvd SW     ",
    "city":"Albuquerque",
    "County":"Bernalillo",
    "State":"New Mexico",
    "zip":"87105"
    }
  },
  {
    "type": "Feature",
    "geometry": {
       "type": "Point",
       "coordinates":  [ -71.431725,41.813396 ]
    },
    "properties": {
    "FMID":1010187,
    "MarketName":"Armory Farmers Market",
    "Website":"http://www.farmfreshri.org",
    "street":"Parade St And Hudson St",
    "city":"Providence ",
    "County":"Providence",
    "State":"Rhode Island",
    "zip":"2907"
    }
  },
  {
    "type": "Feature",
    "geometry": {
       "type": "Point",
       "coordinates":  [ -90.359467,38.454309 ]
    },
    "properties": {
    "FMID":1001991,
    "MarketName":"Arnold Farmers Market",
    "Website":"http://www.arnoldmo.org",
    "street":"2400 Bradley Beach Road",
    "city":"Arnold",
    "County":"Jefferson",
    "State":"Missouri",
    "zip":"63010"
    }
  },
  {
    "type": "Feature",
    "geometry": {
       "type": "Point",
       "coordinates":  [ -120.362,38.239 ]
    },
    "properties": {
    "FMID":1000294,
    "MarketName":"Arnold-Mountain Growers Farmers Market",
    "Website":"",
    "street":"Cedar Center, Hwy. 4 & Oak Circle",
    "city":"Murphys",
    "County":"Calaveras",
    "State":"California",
    "zip":"95247"
    }
  },
  {
    "type": "Feature",
    "geometry": {
       "type": "Point",
       "coordinates":  [ -120.552,35.1271 ]
    },